$GPGGA,085412.000,4825.1024,N,00428.4658,W,1,06,1.4,91.6,M,52.0,M,,0000*73
$GPGGA,085415.000,4825.1024,N,00428.4658,W,1,06,1.4,91.6,M,52.0,M,,0000*74
$GPGGA,085417.000,4825.1024,N,00428.4658,W,1,06,1.4,91.6,M,52.0,M,,0000*76
$GPGGA,085420.000,4825.1024,N,00428.4658,W,1,06,1.4,91.6,M,52.0,M,,0000*72
$GPGGA,085422.000,4825.1024,N,00428.4658,W,1,06,1.4,91.6,M,52.0,M,,0000*70
$GPGGA,085425.000,4825.1024,N,00428.4658,W,1,06,1.4,91.6,M,52.0,M,,0000*77
$GPGGA,085427.000,4825.1024,N,00428.4658,W,1,06,1.4,91.6,M,52.0,M,,0000*75
$GPGGA,085430.000,4825.1024,N,00428.4658,W,1,06,1.4,91.6,M,52.0,M,,0000*73
$GPGGA,085432.000,4825.1024,N,00428.4658,W,1,06,1.4,91.6,M,52.0,M,,0000*71
$GPGGA,085435.000,4825.1024,N,00428.4658,W,1,06,1.4,91.6,M,52.0,M,,0000*76
$GPGGA,085437.000,4825.1024,N,00428.4658,W,1,06,1.4,91.6,M,52.0,M,,0000*74
$GPGGA,085440.000,4825.1024,N,00428.4658,W,1,06,1.4,91.6,M,52.0,M,,0000*74
$GPGGA,085442.000,4825.1024,N,00428.4658,W,1,06,1.4,91.6,M,52.0,M,,0000*76
$GPGGA,085445.000,4825.1024,N,00428.4658,W,1,06,1.4,91.6,M,52.0,M,,0000*71
$GPGGA,085447.000,4825.1024,N,00428.4658,W,1,06,1.4,91.6,M,52.0,M,,0000*73
$GPGGA,085450.000,4825.1024,N,00428.4658,W,1,06,1.4,91.6,M,52.0,M,,0000*75
$GPGGA,085452.000,4825.1024,N,00428.4658,W,1,06,1.4,91.6,M,52.0,M,,0000*77
$GPGGA,085455.000,4825.1024,N,00428.4658,W,1,06,1.4,91.5,M,52.0,M,,0000*73
$GPGGA,085457.000,4825.1024,N,00428.4658,W,1,06,1.4,91.5,M,52.0,M,,0000*71
$GPGGA,085500.000,4825.1024,N,00428.4658,W,1,06,1.4,91.5,M,52.0,M,,0000*72
$GPGGA,085502.000,4825.1024,N,00428.4658,W,1,06,1.4,91.5,M,52.0,M,,0000*70
$GPGGA,085505.000,4825.1024,N,00428.4658,W,1,06,1.4,91.5,M,52.0,M,,0000*77
$GPGGA,085507.000,4825.1024,N,00428.4658,W,1,06,1.4,91.5,M,52.0,M,,0000*75
$GPGGA,085510.000,4825.1024,N,00428.4658,W,1,06,1.4,91.5,M,52.0,M,,0000*73
$GPGGA,085512.000,4825.1024,N,00428.4658,W,1,06,1.4,91.5,M,52.0,M,,0000*71
$GPGGA,085515.000,4825.1024,N,00428.4658,W,1,06,1.4,91.5,M,52.0,M,,0000*76
$GPGGA,085517.000,4825.1024,N,00428.4658,W,1,06,1.4,91.5,M,52.0,M,,0000*74
$GPGGA,085520.000,4825.1024,N,00428.4658,W,1,06,1.4,91.5,M,52.0,M,,0000*70
$GPGGA,085522.000,4825.1024,N,00428.4658,W,1,06,1.4,91.5,M,52.0,M,,0000*72
$GPGGA,085525.000,4825.1024,N,00428.4658,W,1,06,1.4,91.5,M,52.0,M,,0000*75
$GPGGA,085527.000,4825.1024,N,00428.4658,W,1,06,1.4,91.5,M,52.0,M,,0000*77
$GPGGA,085530.000,4825.1024,N,00428.4658,W,1,06,1.4,91.5,M,52.0,M,,0000*71
$GPGGA,085532.000,4825.1024,N,00428.4658,W,1,06,1.4,91.5,M,52.0,M,,0000*73
$GPGGA,085535.000,4825.1024,N,00428.4658,W,1,06,1.4,91.5,M,52.0,M,,0000*74
$GPGGA,085537.000,4825.1024,N,00428.4658,W,1,06,1.4,91.5,M,52.0,M,,0000*76
$GPGGA,085540.000,4825.1024,N,00428.4658,W,1,06,1.4,91.5,M,52.0,M,,0000*76
$GPGGA,085542.000,4825.1024,N,00428.4658,W,1,06,1.4,91.5,M,52.0,M,,0000*74
$GPGGA,085545.000,4825.1024,N,00428.4658,W,1,06,1.4,91.5,M,52.0,M,,0000*73
$GPGGA,085547.000,4825.1024,N,00428.4658,W,1,06,1.4,91.5,M,52.0,M,,0000*71
$GPGGA,085550.000,4825.1024,N,00428.4658,W,1,06,1.4,91.5,M,52.0,M,,0000*77
$GPGGA,085552.000,4825.1024,N,00428.4658,W,1,06,1.4,91.5,M,52.0,M,,0000*75
$GPGGA,085555.000,4825.1024,N,00428.4658,W,1,06,1.4,91.5,M,52.0,M,,0000*72
$GPGGA,085557.000,4825.1024,N,00428.4658,W,1,06,1.4,91.5,M,52.0,M,,0000*70
$GPGGA,085600.000,4825.1024,N,00428.4658,W,1,06,1.4,91.5,M,52.0,M,,0000*71
$GPGGA,085602.000,4825.1024,N,00428.4658,W,1,06,1.4,91.5,M,52.0,M,,0000*73
$GPGGA,085605.000,4825.1024,N,00428.4658,W,1,06,1.4,91.5,M,52.0,M,,0000*74
$GPGGA,085607.000,4825.1024,N,00428.4658,W,1,06,1.4,91.5,M,52.0,M,,0000*76
$GPGGA,085610.000,4825.1024,N,00428.4658,W,1,06,1.4,91.5,M,52.0,M,,0000*70
$GPGGA,085612.000,4825.1024,N,00428.4658,W,1,06,1.4,91.5,M,52.0,M,,0000*72
$GPGGA,085615.000,4825.1024,N,00428.4658,W,1,06,1.4,91.5,M,52.0,M,,0000*75
$GPGGA,085617.000,4825.1024,N,00428.4658,W,1,06,1.4,91.5,M,52.0,M,,0000*77
$GPGGA,085620.000,4825.1024,N,00428.4658,W,1,06,1.4,91.4,M,52.0,M,,0000*72
$GPGGA,085622.000,4825.1024,N,00428.4658,W,1,06,1.4,91.4,M,52.0,M,,0000*70
$GPGGA,085625.000,4825.1024,N,00428.4658,W,1,06,1.4,91.4,M,52.0,M,,0000*77
$GPGGA,085627.000,4825.1024,N,00428.4658,W,1,06,1.4,91.4,M,52.0,M,,0000*75
$GPGGA,085630.000,4825.1024,N,00428.4658,W,1,06,1.4,91.4,M,52.0,M,,0000*73
$GPGGA,085632.000,4825.1024,N,00428.4658,W,1,06,1.4,91.4,M,52.0,M,,0000*71
$GPGGA,085635.000,4825.1024,N,00428.4658,W,1,06,1.4,91.4,M,52.0,M,,0000*76
$GPGGA,085637.000,4825.1024,N,00428.4658,W,1,06,1.4,91.4,M,52.0,M,,0000*74
$GPGGA,085640.000,4825.1024,N,00428.4658,W,1,06,1.4,91.4,M,52.0,M,,0000*74
$GPGGA,085642.000,4825.1024,N,00428.4658,W,1,06,1.4,91.4,M,52.0,M,,0000*76
$GPGGA,085645.000,4825.1024,N,00428.4658,W,1,06,1.4,91.4,M,52.0,M,,0000*71
$GPGGA,085647.000,4825.1024,N,00428.4658,W,1,06,1.4,91.4,M,52.0,M,,0000*73
$GPGGA,085650.000,4825.1024,N,00428.4658,W,1,06,1.4,91.4,M,52.0,M,,0000*75
$GPGGA,085652.000,4825.1024,N,00428.4658,W,1,06,1.4,91.4,M,52.0,M,,0000*77
$GPGGA,085655.000,4825.1024,N,00428.4658,W,1,06,1.4,91.4,M,52.0,M,,0000*70
$GPGGA,085657.000,4825.1024,N,00428.4658,W,1,06,1.4,91.4,M,52.0,M,,0000*72
$GPGGA,085700.000,4825.1024,N,00428.4658,W,1,06,1.4,91.4,M,52.0,M,,0000*71
$GPGGA,085702.000,4825.1024,N,00428.4658,W,1,06,1.4,91.4,M,52.0,M,,0000*73
$GPGGA,085705.000,4825.1024,N,00428.4658,W,1,06,1.4,91.4,M,52.0,M,,0000*74
$GPGGA,085707.000,4825.1024,N,00428.4658,W,1,06,1.4,91.4,M,52.0,M,,0000*76
$GPGGA,085710.000,4825.1024,N,00428.4658,W,1,06,1.4,91.4,M,52.0,M,,0000*70
$GPGGA,085712.000,4825.1024,N,00428.4658,W,1,06,1.4,91.4,M,52.0,M,,0000*72
$GPGGA,085715.000,4825.1024,N,00428.4658,W,1,06,1.4,91.4,M,52.0,M,,0000*75
$GPGGA,085717.000,4825.1024,N,00428.4658,W,1,06,1.4,91.4,M,52.0,M,,0000*77
$GPGGA,085720.000,4825.1024,N,00428.4658,W,1,06,1.4,91.4,M,52.0,M,,0000*73
$GPGGA,085722.000,4825.1024,N,00428.4658,W,1,06,1.4,91.3,M,52.0,M,,0000*76
$GPGGA,085725.000,4825.1024,N,00428.4658,W,1,06,1.4,91.3,M,52.0,M,,0000*71
$GPGGA,085727.000,4825.1024,N,00428.4658,W,1,06,1.4,91.3,M,52.0,M,,0000*73
$GPGGA,085730.000,4825.1024,N,00428.4658,W,1,06,1.4,91.3,M,52.0,M,,0000*75
$GPGGA,085732.000,4825.1024,N,00428.4658,W,1,06,1.4,91.3,M,52.0,M,,0000*77
$GPGGA,085735.000,4825.1024,N,00428.4658,W,1,06,1.4,91.3,M,52.0,M,,0000*70
$GPGGA,085737.000,4825.1024,N,00428.4658,W,1,06,1.4,91.3,M,52.0,M,,0000*72
$GPGGA,085740.000,4825.1024,N,00428.4658,W,1,06,1.4,91.3,M,52.0,M,,0000*72
$GPGGA,085742.000,4825.1024,N,00428.4658,W,1,06,1.4,91.3,M,52.0,M,,0000*70
$GPGGA,085745.000,4825.1024,N,00428.4658,W,1,06,1.4,91.3,M,52.0,M,,0000*77
$GPGGA,085747.000,4825.1024,N,00428.4658,W,1,06,1.4,91.3,M,52.0,M,,0000*75
$GPGGA,085750.000,4825.1024,N,00428.4658,W,1,06,1.4,91.3,M,52.0,M,,0000*73
$GPGGA,085752.000,4825.1024,N,00428.4658,W,1,06,1.4,91.3,M,52.0,M,,0000*71
$GPGGA,085755.000,4825.1024,N,00428.4658,W,1,06,1.4,91.3,M,52.0,M,,0000*76
$GPGGA,085757.000,4825.1024,N,00428.4658,W,1,06,1.4,91.3,M,52.0,M,,0000*74
$GPGGA,085800.000,4825.1024,N,00428.4658,W,1,06,1.4,91.3,M,52.0,M,,0000*79
$GPGGA,085802.000,4825.1024,N,00428.4658,W,1,06,1.4,91.3,M,52.0,M,,0000*7B
$GPGGA,085805.000,4825.1024,N,00428.4658,W,1,06,1.4,91.3,M,52.0,M,,0000*7C
$GPGGA,085807.000,4825.1024,N,00428.4658,W,1,06,1.4,91.3,M,52.0,M,,0000*7E
$GPGGA,085810.000,4825.1024,N,00428.4658,W,1,06,1.4,91.3,M,52.0,M,,0000*78
$GPGGA,085812.000,4825.1024,N,00428.4658,W,1,06,1.4,91.3,M,52.0,M,,0000*7A
$GPGGA,085815.000,4825.1024,N,00428.4658,W,1,06,1.4,91.3,M,52.0,M,,0000*7D
$GPGGA,085817.000,4825.1024,N,00428.4658,W,1,06,1.4,91.3,M,52.0,M,,0000*7F
$GPGGA,085820.000,4825.1024,N,00428.4658,W,1,06,1.4,91.3,M,52.0,M,,0000*7B
$GPGGA,085822.000,4825.1024,N,00428.4658,W,1,06,1.4,91.3,M,52.0,M,,0000*79
$GPGGA,085825.000,4825.1024,N,00428.4658,W,1,06,1.4,91.2,M,52.0,M,,0000*7F
$GPGGA,085827.000,4825.1024,N,00428.4658,W,1,06,1.4,91.2,M,52.0,M,,0000*7D
$GPGGA,085830.000,4825.1024,N,00428.4658,W,1,06,1.4,91.2,M,52.0,M,,0000*7B
$GPGGA,085832.000,4825.1024,N,00428.4658,W,1,06,1.4,91.2,M,52.0,M,,0000*79
$GPGGA,085835.000,4825.1024,N,00428.4658,W,1,06,1.4,91.2,M,52.0,M,,0000*7E
$GPGGA,085837.000,4825.1024,N,00428.4658,W,1,06,1.4,91.2,M,52.0,M,,0000*7C
$GPGGA,085840.000,4825.1024,N,00428.4658,W,1,06,1.4,91.2,M,52.0,M,,0000*7C
$GPGGA,085842.000,4825.1024,N,00428.4658,W,1,06,1.4,91.2,M,52.0,M,,0000*7E
$GPGGA,085845.000,4825.1024,N,00428.4658,W,1,06,1.4,91.2,M,52.0,M,,0000*79
$GPGGA,085847.000,4825.1024,N,00428.4658,W,1,06,1.4,91.2,M,52.0,M,,0000*7B
$GPGGA,085850.000,4825.1024,N,00428.4658,W,1,06,1.4,91.2,M,52.0,M,,0000*7D
$GPGGA,085852.000,4825.1024,N,00428.4658,W,1,06,1.4,91.2,M,52.0,M,,0000*7F
$GPGGA,085855.000,4825.1024,N,00428.4658,W,1,06,1.4,91.2,M,52.0,M,,0000*78
$GPGGA,085857.000,4825.1024,N,00428.4658,W,1,06,1.4,91.2,M,52.0,M,,0000*7A
$GPGGA,085900.000,4825.1024,N,00428.4658,W,1,06,1.4,91.2,M,52.0,M,,0000*79
$GPGGA,085902.000,4825.1024,N,00428.4658,W,1,06,1.4,91.2,M,52.0,M,,0000*7B
$GPGGA,085905.000,4825.1024,N,00428.4658,W,1,06,1.4,91.2,M,52.0,M,,0000*7C
$GPGGA,085907.000,4825.1024,N,00428.4658,W,1,06,1.4,91.2,M,52.0,M,,0000*7E
$GPGGA,085910.000,4825.1024,N,00428.4658,W,1,06,1.4,91.2,M,52.0,M,,0000*78
$GPGGA,085912.000,4825.1024,N,00428.4658,W,1,06,1.4,91.2,M,52.0,M,,0000*7A
$GPGGA,085915.000,4825.1024,N,00428.4658,W,1,06,1.4,91.2,M,52.0,M,,0000*7D
$GPGGA,085917.000,4825.1024,N,00428.4658,W,1,06,1.4,91.2,M,52.0,M,,0000*7F
$GPGGA,085920.000,4825.1024,N,00428.4658,W,1,06,1.4,91.2,M,52.0,M,,0000*7B
$GPGGA,085922.000,4825.1024,N,00428.4658,W,1,06,1.4,91.2,M,52.0,M,,0000*79
$GPGGA,085925.000,4825.1024,N,00428.4658,W,1,06,1.4,91.2,M,52.0,M,,0000*7E
$GPGGA,085927.000,4825.1024,N,00428.4658,W,1,06,1.4,91.2,M,52.0,M,,0000*7C
$GPGGA,085930.000,4825.1024,N,00428.4658,W,1,06,1.4,91.2,M,52.0,M,,0000*7A
$GPGGA,085932.000,4825.1024,N,00428.4658,W,1,06,1.4,91.2,M,52.0,M,,0000*78
$GPGGA,085935.000,4825.1024,N,00428.4658,W,1,06,1.4,91.1,M,52.0,M,,0000*7C
$GPGGA,085937.000,4825.1024,N,00428.4658,W,1,06,1.4,91.1,M,52.0,M,,0000*7E
$GPGGA,085940.000,4825.1024,N,00428.4658,W,1,06,1.4,91.1,M,52.0,M,,0000*7E
$GPGGA,085942.000,4825.1024,N,00428.4658,W,1,06,1.4,91.1,M,52.0,M,,0000*7C
$GPGGA,085945.000,4825.1024,N,00428.4658,W,1,06,1.4,91.1,M,52.0,M,,0000*7B
$GPGGA,085947.000,4825.1024,N,00428.4658,W,1,06,1.4,91.1,M,52.0,M,,0000*79
$GPGGA,085950.000,4825.1024,N,00428.4658,W,1,06,1.4,91.1,M,52.0,M,,0000*7F
$GPGGA,085952.000,4825.1024,N,00428.4658,W,1,06,1.4,91.1,M,52.0,M,,0000*7D
$GPGGA,085955.000,4825.1024,N,00428.4658,W,1,06,1.4,91.1,M,52.0,M,,0000*7A
$GPGGA,085957.000,4825.1024,N,00428.4658,W,1,06,1.4,91.1,M,52.0,M,,0000*78
$GPGGA,090000.000,4825.1024,N,00428.4658,W,1,06,1.4,91.1,M,52.0,M,,0000*77
$GPGGA,090002.000,4825.1024,N,00428.4658,W,1,06,1.4,91.1,M,52.0,M,,0000*75
$GPGGA,090005.000,4825.1024,N,00428.4658,W,1,06,1.4,91.1,M,52.0,M,,0000*72
$GPGGA,090007.000,4825.1024,N,00428.4658,W,1,06,1.4,91.1,M,52.0,M,,0000*70
$GPGGA,090010.000,4825.1024,N,00428.4658,W,1,06,1.4,91.1,M,52.0,M,,0000*76
$GPGGA,090012.000,4825.1024,N,00428.4658,W,1,06,1.4,91.1,M,52.0,M,,0000*74
$GPGGA,090015.000,4825.1024,N,00428.4657,W,1,06,1.4,91.1,M,52.0,M,,0000*7C
$GPGGA,090017.000,4825.1024,N,00428.4657,W,1,06,1.4,91.1,M,52.0,M,,0000*7E
$GPGGA,090020.000,4825.1024,N,00428.4657,W,1,06,1.4,91.1,M,52.0,M,,0000*7A
$GPGGA,090022.000,4825.1024,N,00428.4657,W,1,06,1.4,91.1,M,52.0,M,,0000*78
$GPGGA,090025.000,4825.1024,N,00428.4657,W,1,06,1.4,91.1,M,52.0,M,,0000*7F
$GPGGA,090027.000,4825.1024,N,00428.4657,W,1,06,1.4,91.1,M,52.0,M,,0000*7D
$GPGGA,090030.000,4825.1024,N,00428.4657,W,1,06,1.4,91.1,M,52.0,M,,0000*7B
$GPGGA,090032.000,4825.1024,N,00428.4657,W,1,06,1.4,91.1,M,52.0,M,,0000*79
$GPGGA,090035.000,4825.1024,N,00428.4657,W,1,06,1.4,91.1,M,52.0,M,,0000*7E
$GPGGA,090037.000,4825.1024,N,00428.4657,W,1,06,1.4,91.1,M,52.0,M,,0000*7C
$GPGGA,090040.000,4825.1024,N,00428.4657,W,1,06,1.4,91.1,M,52.0,M,,0000*7C
$GPGGA,090042.000,4825.1024,N,00428.4657,W,1,06,1.4,91.0,M,52.0,M,,0000*7F
$GPGGA,090045.000,4825.1024,N,00428.4657,W,1,06,1.4,91.0,M,52.0,M,,0000*78
$GPGGA,090047.000,4825.1024,N,00428.4657,W,1,06,1.4,91.0,M,52.0,M,,0000*7A
$GPGGA,090050.000,4825.1024,N,00428.4657,W,1,06,1.4,91.0,M,52.0,M,,0000*7C
$GPGGA,090052.000,4825.1024,N,00428.4657,W,1,06,1.4,91.0,M,52.0,M,,0000*7E
$GPGGA,090055.000,4825.1024,N,00428.4657,W,1,06,1.4,91.0,M,52.0,M,,0000*79
$GPGGA,090057.000,4825.1024,N,00428.4657,W,1,06,1.4,91.0,M,52.0,M,,0000*7B
$GPGGA,090100.000,4825.1024,N,00428.4657,W,1,06,1.4,91.0,M,52.0,M,,0000*78
$GPGGA,090102.000,4825.1024,N,00428.4657,W,1,06,1.4,91.0,M,52.0,M,,0000*7A
$GPGGA,090105.000,4825.1024,N,00428.4657,W,1,06,1.4,91.0,M,52.0,M,,0000*7D
$GPGGA,090107.000,4825.1024,N,00428.4657,W,1,06,1.4,91.0,M,52.0,M,,0000*7F
$GPGGA,090110.000,4825.1024,N,00428.4657,W,1,06,1.4,91.0,M,52.0,M,,0000*79
$GPGGA,090112.000,4825.1024,N,00428.4657,W,1,06,1.4,91.0,M,52.0,M,,0000*7B
$GPGGA,090115.000,4825.1024,N,00428.4657,W,1,06,1.4,91.0,M,52.0,M,,0000*7C
$GPGGA,090117.000,4825.1024,N,00428.4657,W,1,06,1.4,91.0,M,52.0,M,,0000*7E
$GPGGA,090120.000,4825.1024,N,00428.4657,W,1,06,1.4,91.0,M,52.0,M,,0000*7A
$GPGGA,090122.000,4825.1024,N,00428.4657,W,1,06,1.4,91.0,M,52.0,M,,0000*78
$GPGGA,090125.000,4825.1024,N,00428.4657,W,1,06,1.4,91.0,M,52.0,M,,0000*7F
$GPGGA,090127.000,4825.1024,N,00428.4657,W,1,06,1.4,91.0,M,52.0,M,,0000*7D
$GPGGA,090130.000,4825.1024,N,00428.4657,W,1,06,1.4,91.0,M,52.0,M,,0000*7B
$GPGGA,090132.000,4825.1024,N,00428.4657,W,1,06,1.4,91.0,M,52.0,M,,0000*79
$GPGGA,090135.000,4825.1024,N,00428.4657,W,1,06,1.4,91.0,M,52.0,M,,0000*7E
$GPGGA,090137.000,4825.1024,N,00428.4657,W,1,06,1.4,91.0,M,52.0,M,,0000*7C
$GPGGA,090140.000,4825.1024,N,00428.4657,W,1,06,1.4,91.0,M,52.0,M,,0000*7C
$GPGGA,090142.000,4825.1024,N,00428.4657,W,1,06,1.4,91.0,M,52.0,M,,0000*7E
$GPGGA,090145.000,4825.1024,N,00428.4657,W,1,06,1.5,91.0,M,52.0,M,,0000*78
$GPGGA,090147.000,4825.1024,N,00428.4657,W,1,06,1.5,91.0,M,52.0,M,,0000*7A
$GPGGA,090150.000,4825.1024,N,00428.4657,W,1,06,1.5,91.0,M,52.0,M,,0000*7C
$GPGGA,090152.000,4825.1024,N,00428.4657,W,1,06,1.5,91.0,M,52.0,M,,0000*7E
$GPGGA,090155.000,4825.1024,N,00428.4657,W,1,06,1.5,90.9,M,52.0,M,,0000*71
$GPGGA,090157.000,4825.1024,N,00428.4657,W,1,06,1.5,90.9,M,52.0,M,,0000*73
$GPGGA,090200.000,4825.1024,N,00428.4657,W,1,06,1.5,90.9,M,52.0,M,,0000*72
$GPGGA,090202.000,4825.1024,N,00428.4657,W,1,06,1.5,90.9,M,52.0,M,,0000*70
$GPGGA,090205.000,4825.1024,N,00428.4657,W,1,06,1.5,90.9,M,52.0,M,,0000*77
$GPGGA,090207.000,4825.1024,N,00428.4657,W,1,06,1.5,90.9,M,52.0,M,,0000*75
$GPGGA,090210.000,4825.1024,N,00428.4657,W,1,06,1.5,90.9,M,52.0,M,,0000*73
$GPGGA,090212.000,4825.1024,N,00428.4657,W,1,06,1.5,90.9,M,52.0,M,,0000*71
$GPGGA,090215.000,4825.1024,N,00428.4657,W,1,06,1.5,90.9,M,52.0,M,,0000*76
$GPGGA,090217.000,4825.1024,N,00428.4657,W,1,06,1.5,90.9,M,52.0,M,,0000*74
$GPGGA,090220.000,4825.1024,N,00428.4657,W,1,06,1.5,90.9,M,52.0,M,,0000*70
$GPGGA,090222.000,4825.1024,N,00428.4657,W,1,06,1.5,90.9,M,52.0,M,,0000*72
$GPGGA,090225.000,4825.1024,N,00428.4657,W,1,06,1.5,90.9,M,52.0,M,,0000*75
$GPGGA,090227.000,4825.1024,N,00428.4657,W,1,06,1.5,90.9,M,52.0,M,,0000*77
$GPGGA,090230.000,4825.1024,N,00428.4657,W,1,06,1.5,90.9,M,52.0,M,,0000*71
$GPGGA,090232.000,4825.1024,N,00428.4657,W,1,06,1.5,90.9,M,52.0,M,,0000*73
$GPGGA,090235.000,4825.1024,N,00428.4657,W,1,06,1.5,90.9,M,52.0,M,,0000*74
$GPGGA,090237.000,4825.1024,N,00428.4657,W,1,06,1.5,90.9,M,52.0,M,,0000*76
$GPGGA,090240.000,4825.1024,N,00428.4657,W,1,06,1.5,90.9,M,52.0,M,,0000*76
$GPGGA,090242.000,4825.1024,N,00428.4657,W,1,06,1.5,90.9,M,52.0,M,,0000*74
$GPGGA,090245.000,4825.1024,N,00428.4657,W,1,06,1.5,90.9,M,52.0,M,,0000*73
$GPGGA,090247.000,4825.1024,N,00428.4657,W,1,06,1.5,90.9,M,52.0,M,,0000*71
$GPGGA,090250.000,4825.1024,N,00428.4657,W,1,06,1.5,90.9,M,52.0,M,,0000*77
$GPGGA,090252.000,4825.1024,N,00428.4657,W,1,06,1.5,90.9,M,52.0,M,,0000*75
$GPGGA,090255.000,4825.1024,N,00428.4657,W,1,06,1.5,90.9,M,52.0,M,,0000*72
$GPGGA,090257.000,4825.1024,N,00428.4657,W,1,06,1.5,90.9,M,52.0,M,,0000*70
$GPGGA,090300.000,4825.1024,N,00428.4657,W,1,06,1.5,90.9,M,52.0,M,,0000*73
$GPGGA,090302.000,4825.1024,N,00428.4657,W,1,06,1.5,90.8,M,52.0,M,,0000*70
$GPGGA,090305.000,4825.1024,N,00428.4657,W,1,06,1.5,90.8,M,52.0,M,,0000*77
$GPGGA,090307.000,4825.1024,N,00428.4657,W,1,06,1.5,90.8,M,52.0,M,,0000*75
$GPGGA,090310.000,4825.1024,N,00428.4657,W,1,06,1.5,90.8,M,52.0,M,,0000*73
$GPGGA,090313.000,4825.1024,N,00428.4657,W,1,06,1.5,90.8,M,52.0,M,,0000*70
$GPGGA,090314.000,4825.1024,N,00428.4657,W,1,06,1.5,90.8,M,52.0,M,,0000*77
$GPGGA,090316.000,4825.1024,N,00428.4657,W,1,06,1.5,90.8,M,52.0,M,,0000*75
$GPGGA,090318.000,4825.1024,N,00428.4657,W,1,06,1.5,90.8,M,52.0,M,,0000*7B
$GPGGA,090319.000,4825.1024,N,00428.4657,W,1,06,1.5,90.8,M,52.0,M,,0000*7A
$GPGGA,090321.000,4825.1024,N,00428.4657,W,1,06,1.5,90.8,M,52.0,M,,0000*71
$GPGGA,090323.000,4825.1024,N,00428.4657,W,1,06,1.5,90.8,M,52.0,M,,0000*73
$GPGGA,090324.000,4825.1024,N,00428.4657,W,1,06,1.5,90.8,M,52.0,M,,0000*74
$GPGGA,090326.000,4825.1024,N,00428.4657,W,1,06,1.5,90.8,M,52.0,M,,0000*76
$GPGGA,090328.000,4825.1024,N,00428.4657,W,1,06,1.5,90.8,M,52.0,M,,0000*78
$GPGGA,090329.000,4825.1024,N,00428.4657,W,1,06,1.5,90.8,M,52.0,M,,0000*79
$GPGGA,090331.000,4825.1024,N,00428.4657,W,1,06,1.5,90.8,M,52.0,M,,0000*70
$GPGGA,090333.000,4825.1024,N,00428.4657,W,1,06,1.5,90.8,M,52.0,M,,0000*72
$GPGGA,090334.000,4825.1024,N,00428.4657,W,1,06,1.5,90.8,M,52.0,M,,0000*75
$GPGGA,090336.000,4825.1024,N,00428.4657,W,1,06,1.5,90.8,M,52.0,M,,0000*77
$GPGGA,090338.000,4825.1024,N,00428.4657,W,1,06,1.5,90.8,M,52.0,M,,0000*79
$GPGGA,090339.000,4825.1024,N,00428.4657,W,1,06,1.5,90.8,M,52.0,M,,0000*78
$GPGGA,090341.000,4825.1024,N,00428.4657,W,1,06,1.5,90.8,M,52.0,M,,0000*77
$GPGGA,090343.000,4825.1024,N,00428.4657,W,1,06,1.5,90.8,M,52.0,M,,0000*75
$GPGGA,090344.000,4825.1024,N,00428.4657,W,1,06,1.5,90.8,M,52.0,M,,0000*72
$GPGGA,090346.000,4825.1024,N,00428.4657,W,1,06,1.5,90.8,M,52.0,M,,0000*70
$GPGGA,090348.000,4825.1024,N,00428.4657,W,1,06,1.5,90.8,M,52.0,M,,0000*7E
$GPGGA,090349.000,4825.1024,N,00428.4657,W,1,06,1.5,90.8,M,52.0,M,,0000*7F
$GPGGA,090351.000,4825.1024,N,00428.4657,W,1,06,1.5,90.8,M,52.0,M,,0000*76
$GPGGA,090353.000,4825.1024,N,00428.4657,W,1,06,1.5,90.8,M,52.0,M,,0000*74
$GPGGA,090354.000,4825.1024,N,00428.4657,W,1,06,1.5,90.8,M,52.0,M,,0000*73
$GPGGA,090356.000,4825.1024,N,00428.4657,W,1,06,1.5,90.8,M,52.0,M,,0000*71
$GPGGA,090358.000,4825.1024,N,00428.4657,W,1,06,1.5,90.8,M,52.0,M,,0000*7F
$GPGGA,090359.000,4825.1024,N,00428.4657,W,1,06,1.5,90.8,M,52.0,M,,0000*7E
$GPGGA,090401.000,4825.1024,N,00428.4657,W,1,06,1.5,90.8,M,52.0,M,,0000*74
$GPGGA,090403.000,4825.1024,N,00428.4657,W,1,06,1.5,90.8,M,52.0,M,,0000*76
$GPGGA,090404.000,4825.1024,N,00428.4657,W,1,06,1.5,90.8,M,52.0,M,,0000*71
$GPGGA,090406.000,4825.1024,N,00428.4657,W,1,06,1.5,90.8,M,52.0,M,,0000*73
$GPGGA,090408.000,4825.1024,N,00428.4657,W,1,06,1.5,90.8,M,52.0,M,,0000*7D
$GPGGA,090409.000,4825.1024,N,00428.4657,W,1,06,1.5,90.8,M,52.0,M,,0000*7C
$GPGGA,090411.000,4825.1024,N,00428.4657,W,1,06,1.5,90.8,M,52.0,M,,0000*75
$GPGGA,090413.000,4825.1024,N,00428.4657,W,1,06,1.5,90.8,M,52.0,M,,0000*77
$GPGGA,090414.000,4825.1024,N,00428.4657,W,1,06,1.5,90.8,M,52.0,M,,0000*70
$GPGGA,090416.000,4825.1024,N,00428.4657,W,1,06,1.5,90.8,M,52.0,M,,0000*72
$GPGGA,090418.000,4825.1024,N,00428.4657,W,1,06,1.5,90.8,M,52.0,M,,0000*7C
$GPGGA,090419.000,4825.1024,N,00428.4657,W,1,06,1.5,90.8,M,52.0,M,,0000*7D
$GPGGA,090421.000,4825.1024,N,00428.4657,W,1,06,1.5,90.8,M,52.0,M,,0000*76
$GPGGA,090423.000,4825.1024,N,00428.4657,W,1,05,1.7,90.8,M,52.0,M,,0000*75
$GPGGA,090424.000,4825.1023,N,00428.4657,W,1,05,1.7,90.7,M,52.0,M,,0000*7A
$GPGGA,090426.000,4825.1023,N,00428.4657,W,1,06,1.5,90.7,M,52.0,M,,0000*79
$GPGGA,090428.000,4825.1023,N,00428.4657,W,1,06,1.5,90.7,M,52.0,M,,0000*77
$GPGGA,090429.000,4825.1023,N,00428.4657,W,1,06,1.5,90.7,M,52.0,M,,0000*76
$GPGGA,090431.000,4825.1023,N,00428.4657,W,1,06,1.5,90.7,M,52.0,M,,0000*7F
$GPGGA,090433.000,4825.1023,N,00428.4657,W,1,06,1.5,90.7,M,52.0,M,,0000*7D
$GPGGA,090434.000,4825.1023,N,00428.4657,W,1,06,1.5,90.7,M,52.0,M,,0000*7A
$GPGGA,090436.000,4825.1023,N,00428.4657,W,1,06,1.5,90.7,M,52.0,M,,0000*78
$GPGGA,090438.000,4825.1023,N,00428.4657,W,1,05,1.7,90.7,M,52.0,M,,0000*77
$GPGGA,090439.000,4825.1022,N,00428.4657,W,1,05,1.7,90.6,M,52.0,M,,0000*76
$GPGGA,090441.000,4825.1022,N,00428.4656,W,1,05,1.7,90.6,M,52.0,M,,0000*78
$GPGGA,090443.000,4825.1022,N,00428.4656,W,1,06,1.5,90.5,M,52.0,M,,0000*78
$GPGGA,090444.000,4825.1021,N,00428.4656,W,1,05,1.7,90.4,M,52.0,M,,0000*7C
$GPGGA,090446.000,4825.1021,N,00428.4656,W,1,06,1.5,90.4,M,52.0,M,,0000*7F
$GPGGA,090448.000,4825.1021,N,00428.4656,W,1,06,1.5,90.4,M,52.0,M,,0000*71
$GPGGA,090449.000,4825.1021,N,00428.4656,W,1,06,1.5,90.4,M,52.0,M,,0000*70
$GPGGA,090451.000,4825.1021,N,00428.4656,W,1,06,1.5,90.4,M,52.0,M,,0000*79
$GPGGA,090453.000,4825.1021,N,00428.4656,W,1,06,1.5,90.4,M,52.0,M,,0000*7B
$GPGGA,090454.000,4825.1021,N,00428.4656,W,1,06,1.5,90.4,M,52.0,M,,0000*7C
$GPGGA,090456.000,4825.1021,N,00428.4656,W,1,06,1.5,90.4,M,52.0,M,,0000*7E
$GPGGA,090458.000,4825.1021,N,00428.4656,W,1,06,1.5,90.4,M,52.0,M,,0000*70
$GPGGA,090459.000,4825.1021,N,00428.4656,W,1,06,1.5,90.4,M,52.0,M,,0000*71
$GPGGA,090501.000,4825.1021,N,00428.4656,W,1,06,1.5,90.4,M,52.0,M,,0000*7D
$GPGGA,090503.000,4825.1021,N,00428.4656,W,1,06,1.5,90.4,M,52.0,M,,0000*7F
$GPGGA,090504.000,4825.1021,N,00428.4656,W,1,06,1.5,90.4,M,52.0,M,,0000*78
$GPGGA,090506.000,4825.1021,N,00428.4656,W,1,06,1.5,90.4,M,52.0,M,,0000*7A
$GPGGA,090508.000,4825.1021,N,00428.4656,W,1,06,1.5,90.4,M,52.0,M,,0000*74
$GPGGA,090509.000,4825.1021,N,00428.4656,W,1,06,1.5,90.4,M,52.0,M,,0000*75
$GPGGA,090511.000,4825.1021,N,00428.4656,W,1,06,1.5,90.4,M,52.0,M,,0000*7C
$GPGGA,090513.000,4825.1021,N,00428.4656,W,1,06,1.5,90.4,M,52.0,M,,0000*7E
$GPGGA,090514.000,4825.1021,N,00428.4656,W,1,06,1.5,90.4,M,52.0,M,,0000*79
$GPGGA,090516.000,4825.1021,N,00428.4656,W,1,06,1.5,90.4,M,52.0,M,,0000*7B
$GPGGA,090518.000,4825.1021,N,00428.4656,W,1,06,1.5,90.4,M,52.0,M,,0000*75
$GPGGA,090519.000,4825.1021,N,00428.4656,W,1,06,1.5,90.4,M,52.0,M,,0000*74
$GPGGA,090521.000,4825.1021,N,00428.4656,W,1,06,1.5,90.4,M,52.0,M,,0000*7F
$GPGGA,090523.000,4825.1021,N,00428.4656,W,1,06,1.5,90.4,M,52.0,M,,0000*7D
$GPGGA,090524.000,4825.1021,N,00428.4656,W,1,06,1.5,90.4,M,52.0,M,,0000*7A
$GPGGA,090526.000,4825.1021,N,00428.4656,W,1,06,1.5,90.4,M,52.0,M,,0000*78
$GPGGA,090528.000,4825.1021,N,00428.4656,W,1,06,1.5,90.4,M,52.0,M,,0000*76
$GPGGA,090529.000,4825.1021,N,00428.4656,W,1,06,1.5,90.4,M,52.0,M,,0000*77
$GPGGA,090531.000,4825.1021,N,00428.4656,W,1,06,1.5,90.4,M,52.0,M,,0000*7E
$GPGGA,090533.000,4825.1021,N,00428.4656,W,1,06,1.5,90.4,M,52.0,M,,0000*7C
$GPGGA,090534.000,4825.1021,N,00428.4656,W,1,06,1.5,90.4,M,52.0,M,,0000*7B
$GPGGA,090536.000,4825.1021,N,00428.4656,W,1,06,1.5,90.4,M,52.0,M,,0000*79
$GPGGA,090538.000,4825.1021,N,00428.4656,W,1,06,1.5,90.4,M,52.0,M,,0000*77
$GPGGA,090539.000,4825.1021,N,00428.4656,W,1,06,1.5,90.4,M,52.0,M,,0000*76
$GPGGA,090541.000,4825.1021,N,00428.4656,W,1,06,1.5,90.4,M,52.0,M,,0000*79
$GPGGA,090543.000,4825.1021,N,00428.4656,W,1,06,1.5,90.4,M,52.0,M,,0000*7B
$GPGGA,090544.000,4825.1021,N,00428.4656,W,1,06,1.5,90.4,M,52.0,M,,0000*7C
$GPGGA,090546.000,4825.1021,N,00428.4656,W,1,06,1.5,90.4,M,52.0,M,,0000*7E
$GPGGA,090548.000,4825.1021,N,00428.4656,W,1,06,1.5,90.4,M,52.0,M,,0000*70
$GPGGA,090549.000,4825.1021,N,00428.4656,W,1,06,1.5,90.4,M,52.0,M,,0000*71
$GPGGA,090551.000,4825.1021,N,00428.4656,W,1,06,1.5,90.4,M,52.0,M,,0000*78
$GPGGA,090553.000,4825.1021,N,00428.4656,W,1,06,1.5,90.4,M,52.0,M,,0000*7A
$GPGGA,090554.000,4825.1021,N,00428.4656,W,1,06,1.5,90.4,M,52.0,M,,0000*7D
$GPGGA,090556.000,4825.1021,N,00428.4656,W,1,06,1.5,90.4,M,52.0,M,,0000*7F
$GPGGA,090558.000,4825.1021,N,00428.4656,W,1,06,1.5,90.4,M,52.0,M,,0000*71
$GPGGA,090559.000,4825.1021,N,00428.4656,W,1,06,1.5,90.4,M,52.0,M,,0000*70
$GPGGA,090601.000,4825.1021,N,00428.4656,W,1,06,1.5,90.4,M,52.0,M,,0000*7E
$GPGGA,090603.000,4825.1021,N,00428.4656,W,1,06,1.5,90.4,M,52.0,M,,0000*7C
$GPGGA,090604.000,4825.1021,N,00428.4656,W,1,06,1.5,90.4,M,52.0,M,,0000*7B
$GPGGA,090606.000,4825.1021,N,00428.4656,W,1,06,1.5,90.4,M,52.0,M,,0000*79
$GPGGA,090608.000,4825.1021,N,00428.4656,W,1,06,1.5,90.4,M,52.0,M,,0000*77
$GPGGA,090609.000,4825.1021,N,00428.4656,W,1,06,1.5,90.4,M,52.0,M,,0000*76
$GPGGA,090611.000,4825.1021,N,00428.4656,W,1,06,1.5,90.4,M,52.0,M,,0000*7F
$GPGGA,090613.000,4825.1021,N,00428.4656,W,1,06,1.5,90.4,M,52.0,M,,0000*7D
$GPGGA,090614.000,4825.1021,N,00428.4656,W,1,06,1.5,90.4,M,52.0,M,,0000*7A
$GPGGA,090616.000,4825.1021,N,00428.4656,W,1,06,1.5,90.4,M,52.0,M,,0000*78
$GPGGA,090618.000,4825.1021,N,00428.4656,W,1,06,1.5,90.4,M,52.0,M,,0000*76
$GPGGA,090619.000,4825.1021,N,00428.4656,W,1,06,1.5,90.4,M,52.0,M,,0000*77
$GPGGA,090621.000,4825.1021,N,00428.4656,W,1,06,1.5,90.4,M,52.0,M,,0000*7C
$GPGGA,090623.000,4825.1021,N,00428.4656,W,1,06,1.5,90.4,M,52.0,M,,0000*7E
$GPGGA,090624.000,4825.1021,N,00428.4656,W,1,06,1.5,90.4,M,52.0,M,,0000*79
$GPGGA,090626.000,4825.1021,N,00428.4656,W,1,06,1.5,90.4,M,52.0,M,,0000*7B
$GPGGA,090628.000,4825.1021,N,00428.4656,W,1,06,1.5,90.4,M,52.0,M,,0000*75
$GPGGA,090629.000,4825.1021,N,00428.4656,W,1,06,1.5,90.4,M,52.0,M,,0000*74
$GPGGA,090631.000,4825.1021,N,00428.4656,W,1,06,1.5,90.4,M,52.0,M,,0000*7D
$GPGGA,090633.000,4825.1021,N,00428.4656,W,1,06,1.5,90.4,M,52.0,M,,0000*7F
$GPGGA,090634.000,4825.1021,N,00428.4656,W,1,06,1.5,90.4,M,52.0,M,,0000*78
$GPGGA,090636.000,4825.1021,N,00428.4656,W,1,06,1.5,90.4,M,52.0,M,,0000*7A
$GPGGA,090638.000,4825.1021,N,00428.4656,W,1,06,1.5,90.4,M,52.0,M,,0000*74
$GPGGA,090639.000,4825.1021,N,00428.4656,W,1,06,1.5,90.4,M,52.0,M,,0000*75
$GPGGA,090641.000,4825.1021,N,00428.4656,W,1,06,1.5,90.4,M,52.0,M,,0000*7A
$GPGGA,090643.000,4825.1021,N,00428.4656,W,1,06,1.5,90.4,M,52.0,M,,0000*78
$GPGGA,090644.000,4825.1021,N,00428.4656,W,1,06,1.5,90.4,M,52.0,M,,0000*7F
$GPGGA,090646.000,4825.1021,N,00428.4656,W,1,06,1.5,90.4,M,52.0,M,,0000*7D
$GPGGA,090648.000,4825.1021,N,00428.4656,W,1,06,1.5,90.4,M,52.0,M,,0000*73
$GPGGA,090649.000,4825.1021,N,00428.4656,W,1,06,1.5,90.4,M,52.0,M,,0000*72
$GPGGA,090651.000,4825.1021,N,00428.4656,W,1,06,1.5,90.4,M,52.0,M,,0000*7B
$GPGGA,090653.000,4825.1021,N,00428.4656,W,1,06,1.5,90.4,M,52.0,M,,0000*79
$GPGGA,090654.000,4825.1021,N,00428.4656,W,1,06,1.5,90.4,M,52.0,M,,0000*7E
$GPGGA,090656.000,4825.1021,N,00428.4656,W,1,06,1.5,90.4,M,52.0,M,,0000*7C
$GPGGA,090658.000,4825.1021,N,00428.4656,W,1,06,1.5,90.4,M,52.0,M,,0000*72
$GPGGA,090659.000,4825.1021,N,00428.4656,W,1,06,1.5,90.4,M,52.0,M,,0000*73
$GPGGA,090701.000,4825.1021,N,00428.4656,W,1,06,1.5,90.4,M,52.0,M,,0000*7F
$GPGGA,090703.000,4825.1021,N,00428.4656,W,1,06,1.5,90.4,M,52.0,M,,0000*7D
$GPGGA,090704.000,4825.1021,N,00428.4656,W,1,06,1.5,90.4,M,52.0,M,,0000*7A
$GPGGA,090706.000,4825.1021,N,00428.4656,W,1,06,1.5,90.4,M,52.0,M,,0000*78
$GPGGA,090708.000,4825.1021,N,00428.4656,W,1,06,1.5,90.4,M,52.0,M,,0000*76
$GPGGA,090709.000,4825.1021,N,00428.4656,W,1,06,1.5,90.4,M,52.0,M,,0000*77
$GPGGA,090711.000,4825.1021,N,00428.4656,W,1,06,1.5,90.4,M,52.0,M,,0000*7E
$GPGGA,090713.000,4825.1021,N,00428.4656,W,1,06,1.5,90.4,M,52.0,M,,0000*7C
$GPGGA,090714.000,4825.1021,N,00428.4656,W,1,06,1.5,90.4,M,52.0,M,,0000*7B
$GPGGA,090716.000,4825.1021,N,00428.4656,W,1,06,1.5,90.4,M,52.0,M,,0000*79
$GPGGA,090718.000,4825.1021,N,00428.4656,W,1,06,1.5,90.4,M,52.0,M,,0000*77
$GPGGA,090719.000,4825.1021,N,00428.4656,W,1,06,1.5,90.4,M,52.0,M,,0000*76
$GPGGA,090721.000,4825.1021,N,00428.4656,W,1,06,1.5,90.4,M,52.0,M,,0000*7D
$GPGGA,090723.000,4825.1021,N,00428.4656,W,1,06,1.5,90.4,M,52.0,M,,0000*7F
$GPGGA,090724.000,4825.1021,N,00428.4656,W,1,06,1.5,90.4,M,52.0,M,,0000*78
$GPGGA,090726.000,4825.1021,N,00428.4656,W,1,06,1.5,90.4,M,52.0,M,,0000*7A
$GPGGA,090728.000,4825.1021,N,00428.4656,W,1,06,1.5,90.4,M,52.0,M,,0000*74
$GPGGA,090729.000,4825.1021,N,00428.4656,W,1,06,1.5,90.4,M,52.0,M,,0000*75
$GPGGA,090731.000,4825.1021,N,00428.4656,W,1,06,1.5,90.4,M,52.0,M,,0000*7C
$GPGGA,090733.000,4825.1021,N,00428.4656,W,1,06,1.5,90.4,M,52.0,M,,0000*7E
$GPGGA,090734.000,4825.1021,N,00428.4656,W,1,06,1.5,90.4,M,52.0,M,,0000*79
$GPGGA,090736.000,4825.1021,N,00428.4656,W,1,06,1.5,90.4,M,52.0,M,,0000*7B
$GPGGA,090738.000,4825.1021,N,00428.4656,W,1,06,1.5,90.4,M,52.0,M,,0000*75
$GPGGA,090739.000,4825.1021,N,00428.4656,W,1,06,1.5,90.4,M,52.0,M,,0000*74
$GPGGA,090741.000,4825.1021,N,00428.4656,W,1,06,1.5,90.4,M,52.0,M,,0000*7B
$GPGGA,090743.000,4825.1021,N,00428.4656,W,1,06,1.5,90.4,M,52.0,M,,0000*79
$GPGGA,090744.000,4825.1021,N,00428.4656,W,1,06,1.5,90.4,M,52.0,M,,0000*7E
$GPGGA,090746.000,4825.1021,N,00428.4656,W,1,06,1.5,90.4,M,52.0,M,,0000*7C
$GPGGA,090748.000,4825.1021,N,00428.4656,W,1,06,1.5,90.4,M,52.0,M,,0000*72
$GPGGA,090749.000,4825.1021,N,00428.4656,W,1,06,1.5,90.4,M,52.0,M,,0000*73
$GPGGA,090751.000,4825.1021,N,00428.4656,W,1,06,1.5,90.4,M,52.0,M,,0000*7A
$GPGGA,090753.000,4825.1021,N,00428.4656,W,1,06,1.5,90.4,M,52.0,M,,0000*78
$GPGGA,090754.000,4825.1021,N,00428.4656,W,1,06,1.5,90.4,M,52.0,M,,0000*7F
$GPGGA,090756.000,4825.1021,N,00428.4656,W,1,06,1.5,90.4,M,52.0,M,,0000*7D
$GPGGA,090758.000,4825.1021,N,00428.4656,W,1,06,1.5,90.4,M,52.0,M,,0000*73
$GPGGA,090759.000,4825.1021,N,00428.4656,W,1,06,1.5,90.4,M,52.0,M,,0000*72
$GPGGA,090801.000,4825.1021,N,00428.4656,W,1,06,1.5,90.4,M,52.0,M,,0000*70
$GPGGA,090803.000,4825.1021,N,00428.4656,W,1,06,1.5,90.4,M,52.0,M,,0000*72
$GPGGA,090804.000,4825.1021,N,00428.4656,W,1,06,1.5,90.4,M,52.0,M,,0000*75
$GPGGA,090806.000,4825.1021,N,00428.4656,W,1,06,1.5,90.4,M,52.0,M,,0000*77
$GPGGA,090808.000,4825.1021,N,00428.4656,W,1,06,1.5,90.4,M,52.0,M,,0000*79
$GPGGA,090809.000,4825.1021,N,00428.4656,W,1,06,1.5,90.4,M,52.0,M,,0000*78
$GPGGA,090811.000,4825.1021,N,00428.4656,W,1,06,1.5,90.4,M,52.0,M,,0000*71
$GPGGA,090813.000,4825.1021,N,00428.4656,W,1,06,1.5,90.4,M,52.0,M,,0000*73
$GPGGA,090814.000,4825.1021,N,00428.4656,W,1,06,1.5,90.4,M,52.0,M,,0000*74
$GPGGA,090816.000,4825.1021,N,00428.4656,W,1,06,1.5,90.4,M,52.0,M,,0000*76
$GPGGA,090818.000,4825.1021,N,00428.4656,W,1,06,1.5,90.4,M,52.0,M,,0000*78
$GPGGA,090819.000,4825.1021,N,00428.4656,W,1,06,1.5,90.4,M,52.0,M,,0000*79
$GPGGA,090821.000,4825.1021,N,00428.4656,W,1,06,1.5,90.4,M,52.0,M,,0000*72
$GPGGA,090823.000,4825.1021,N,00428.4656,W,1,06,1.5,90.4,M,52.0,M,,0000*70
$GPGGA,090824.000,4825.1021,N,00428.4656,W,1,06,1.5,90.4,M,52.0,M,,0000*77
$GPGGA,090826.000,4825.1021,N,00428.4656,W,1,06,1.5,90.4,M,52.0,M,,0000*75
$GPGGA,090828.000,4825.1021,N,00428.4656,W,1,06,1.5,90.4,M,52.0,M,,0000*7B
$GPGGA,090829.000,4825.1021,N,00428.4656,W,1,06,1.5,90.4,M,52.0,M,,0000*7A
$GPGGA,090831.000,4825.1021,N,00428.4656,W,1,06,1.5,90.4,M,52.0,M,,0000*73
$GPGGA,090833.000,4825.1021,N,00428.4656,W,1,06,1.5,90.4,M,52.0,M,,0000*71
$GPGGA,090834.000,4825.1021,N,00428.4656,W,1,06,1.5,90.4,M,52.0,M,,0000*76
$GPGGA,090836.000,4825.1021,N,00428.4656,W,1,06,1.5,90.4,M,52.0,M,,0000*74
$GPGGA,090838.000,4825.1021,N,00428.4656,W,1,06,1.5,90.4,M,52.0,M,,0000*7A
$GPGGA,090839.000,4825.1021,N,00428.4656,W,1,06,1.5,90.4,M,52.0,M,,0000*7B
$GPGGA,090841.000,4825.1021,N,00428.4656,W,1,06,1.5,90.4,M,52.0,M,,0000*74
$GPGGA,090843.000,4825.1021,N,00428.4656,W,1,06,1.5,90.4,M,52.0,M,,0000*76
$GPGGA,090844.000,4825.1021,N,00428.4656,W,1,06,1.5,90.4,M,52.0,M,,0000*71
$GPGGA,090846.000,4825.1021,N,00428.4656,W,1,06,1.5,90.4,M,52.0,M,,0000*73
$GPGGA,090848.000,4825.1021,N,00428.4656,W,1,06,1.5,90.4,M,52.0,M,,0000*7D
$GPGGA,090849.000,4825.1021,N,00428.4656,W,1,06,1.5,90.4,M,52.0,M,,0000*7C
$GPGGA,090851.000,4825.1021,N,00428.4656,W,1,06,1.5,90.4,M,52.0,M,,0000*75
$GPGGA,090853.000,4825.1021,N,00428.4656,W,1,06,1.5,90.4,M,52.0,M,,0000*77
$GPGGA,090854.000,4825.1021,N,00428.4656,W,1,06,1.5,90.4,M,52.0,M,,0000*70
$GPGGA,090856.000,4825.1021,N,00428.4656,W,1,06,1.5,90.4,M,52.0,M,,0000*72
$GPGGA,090858.000,4825.1021,N,00428.4656,W,1,06,1.5,90.4,M,52.0,M,,0000*7C
$GPGGA,090859.000,4825.1021,N,00428.4656,W,1,06,1.5,90.4,M,52.0,M,,0000*7D
$GPGGA,090901.000,4825.1021,N,00428.4656,W,1,06,1.5,90.4,M,52.0,M,,0000*71
$GPGGA,090903.000,4825.1021,N,00428.4656,W,1,06,1.5,90.4,M,52.0,M,,0000*73
$GPGGA,090904.000,4825.1021,N,00428.4656,W,1,06,1.5,90.4,M,52.0,M,,0000*74
$GPGGA,090906.000,4825.1021,N,00428.4656,W,1,06,1.5,90.4,M,52.0,M,,0000*76
$GPGGA,090908.000,4825.1021,N,00428.4656,W,1,06,1.5,90.4,M,52.0,M,,0000*78
$GPGGA,090909.000,4825.1021,N,00428.4656,W,1,06,1.5,90.4,M,52.0,M,,0000*79
$GPGGA,090911.000,4825.1021,N,00428.4656,W,1,06,1.5,90.4,M,52.0,M,,0000*70
$GPGGA,090913.000,4825.1021,N,00428.4656,W,1,06,1.5,90.4,M,52.0,M,,0000*72
$GPGGA,090914.000,4825.1021,N,00428.4656,W,1,06,1.5,90.4,M,52.0,M,,0000*75
$GPGGA,090916.000,4825.1021,N,00428.4656,W,1,06,1.5,90.4,M,52.0,M,,0000*77
$GPGGA,090918.000,4825.1021,N,00428.4656,W,1,06,1.5,90.4,M,52.0,M,,0000*79
$GPGGA,090919.000,4825.1021,N,00428.4656,W,1,06,1.5,90.4,M,52.0,M,,0000*78
$GPGGA,090921.000,4825.1021,N,00428.4656,W,1,06,1.5,90.4,M,52.0,M,,0000*73
$GPGGA,090923.000,4825.1021,N,00428.4656,W,1,06,1.5,90.4,M,52.0,M,,0000*71
$GPGGA,090924.000,4825.1021,N,00428.4656,W,1,06,1.5,90.4,M,52.0,M,,0000*76
$GPGGA,090926.000,4825.1021,N,00428.4656,W,1,06,1.5,90.4,M,52.0,M,,0000*74
$GPGGA,090928.000,4825.1021,N,00428.4656,W,1,06,1.5,90.4,M,52.0,M,,0000*7A
$GPGGA,090929.000,4825.1021,N,00428.4656,W,1,06,1.5,90.4,M,52.0,M,,0000*7B
$GPGGA,090931.000,4825.1021,N,00428.4656,W,1,06,1.5,90.4,M,52.0,M,,0000*72
$GPGGA,090933.000,4825.1021,N,00428.4656,W,1,06,1.5,90.4,M,52.0,M,,0000*70
$GPGGA,090934.000,4825.1021,N,00428.4656,W,1,06,1.5,90.4,M,52.0,M,,0000*77
$GPGGA,090936.000,4825.1021,N,00428.4656,W,1,06,1.5,90.4,M,52.0,M,,0000*75
$GPGGA,090938.000,4825.1021,N,00428.4656,W,1,06,1.5,90.4,M,52.0,M,,0000*7B
$GPGGA,090939.000,4825.1021,N,00428.4656,W,1,06,1.5,90.4,M,52.0,M,,0000*7A
$GPGGA,090941.000,4825.1021,N,00428.4656,W,1,06,1.5,90.4,M,52.0,M,,0000*75
$GPGGA,090943.000,4825.1021,N,00428.4656,W,1,06,1.5,90.4,M,52.0,M,,0000*77
$GPGGA,090944.000,4825.1021,N,00428.4656,W,1,06,1.5,90.4,M,52.0,M,,0000*70
$GPGGA,090946.000,4825.1021,N,00428.4656,W,1,06,1.5,90.4,M,52.0,M,,0000*72
$GPGGA,090948.000,4825.1021,N,00428.4656,W,1,06,1.5,90.4,M,52.0,M,,0000*7C
$GPGGA,090949.000,4825.1021,N,00428.4656,W,1,06,1.5,90.4,M,52.0,M,,0000*7D
$GPGGA,090951.000,4825.1021,N,00428.4656,W,1,06,1.5,90.4,M,52.0,M,,0000*74
$GPGGA,090953.000,4825.1021,N,00428.4656,W,1,06,1.5,90.4,M,52.0,M,,0000*76
$GPGGA,090954.000,4825.1021,N,00428.4656,W,1,06,1.5,90.4,M,52.0,M,,0000*71
$GPGGA,090956.000,4825.1021,N,00428.4656,W,1,06,1.5,90.4,M,52.0,M,,0000*73
$GPGGA,090958.000,4825.1021,N,00428.4656,W,1,06,1.5,90.4,M,52.0,M,,0000*7D
$GPGGA,090959.000,4825.1021,N,00428.4656,W,1,06,1.5,90.4,M,52.0,M,,0000*7C
$GPGGA,091001.000,4825.1021,N,00428.4656,W,1,06,1.5,90.4,M,52.0,M,,0000*79
$GPGGA,091003.000,4825.1021,N,00428.4656,W,1,06,1.5,90.4,M,52.0,M,,0000*7B
$GPGGA,091004.000,4825.1021,N,00428.4656,W,1,06,1.5,90.4,M,52.0,M,,0000*7C
$GPGGA,091006.000,4825.1021,N,00428.4656,W,1,06,1.5,90.4,M,52.0,M,,0000*7E
$GPGGA,091008.000,4825.1021,N,00428.4656,W,1,06,1.5,90.4,M,52.0,M,,0000*70
$GPGGA,091009.000,4825.1021,N,00428.4656,W,1,06,1.5,90.4,M,52.0,M,,0000*71
$GPGGA,091011.000,4825.1021,N,00428.4656,W,1,06,1.5,90.4,M,52.0,M,,0000*78
$GPGGA,091013.000,4825.1021,N,00428.4656,W,1,06,1.5,90.4,M,52.0,M,,0000*7A
$GPGGA,091014.000,4825.1021,N,00428.4656,W,1,06,1.5,90.4,M,52.0,M,,0000*7D
$GPGGA,091016.000,4825.1021,N,00428.4656,W,1,06,1.5,90.4,M,52.0,M,,0000*7F
$GPGGA,091018.000,4825.1021,N,00428.4656,W,1,06,1.5,90.4,M,52.0,M,,0000*71
$GPGGA,091019.000,4825.1021,N,00428.4656,W,1,06,1.5,90.4,M,52.0,M,,0000*70
$GPGGA,091021.000,4825.1021,N,00428.4656,W,1,06,1.5,90.4,M,52.0,M,,0000*7B
$GPGGA,091023.000,4825.1021,N,00428.4656,W,1,06,1.5,90.4,M,52.0,M,,0000*79
$GPGGA,091024.000,4825.1021,N,00428.4656,W,1,06,1.5,90.3,M,52.0,M,,0000*79
$GPGGA,091026.000,4825.1021,N,00428.4656,W,1,06,1.5,90.3,M,52.0,M,,0000*7B
$GPGGA,091028.000,4825.1021,N,00428.4656,W,1,06,1.5,90.3,M,52.0,M,,0000*75
$GPGGA,091029.000,4825.1021,N,00428.4656,W,1,06,1.5,90.3,M,52.0,M,,0000*74
$GPGGA,091031.000,4825.1021,N,00428.4656,W,1,06,1.5,90.3,M,52.0,M,,0000*7D
$GPGGA,091033.000,4825.1021,N,00428.4656,W,1,06,1.5,90.3,M,52.0,M,,0000*7F
$GPGGA,091034.000,4825.1021,N,00428.4656,W,1,06,1.5,90.3,M,52.0,M,,0000*78
$GPGGA,091036.000,4825.1021,N,00428.4656,W,1,06,1.5,90.3,M,52.0,M,,0000*7A
$GPGGA,091038.000,4825.1021,N,00428.4656,W,1,06,1.5,90.3,M,52.0,M,,0000*74
$GPGGA,091039.000,4825.1021,N,00428.4656,W,1,06,1.5,90.3,M,52.0,M,,0000*75
$GPGGA,091041.000,4825.1021,N,00428.4656,W,1,06,1.5,90.3,M,52.0,M,,0000*7A
$GPGGA,091043.000,4825.1021,N,00428.4656,W,1,06,1.5,90.3,M,52.0,M,,0000*78
$GPGGA,091044.000,4825.1021,N,00428.4656,W,1,06,1.5,90.3,M,52.0,M,,0000*7F
$GPGGA,091046.000,4825.1021,N,00428.4656,W,1,06,1.5,90.3,M,52.0,M,,0000*7D
$GPGGA,091048.000,4825.1021,N,00428.4656,W,1,06,1.5,90.3,M,52.0,M,,0000*73
$GPGGA,091049.000,4825.1021,N,00428.4656,W,1,06,1.5,90.3,M,52.0,M,,0000*72
$GPGGA,091051.000,4825.1021,N,00428.4656,W,1,06,1.5,90.3,M,52.0,M,,0000*7B
$GPGGA,091053.000,4825.1021,N,00428.4656,W,1,06,1.5,90.3,M,52.0,M,,0000*79
$GPGGA,091054.000,4825.1021,N,00428.4656,W,1,06,1.5,90.3,M,52.0,M,,0000*7E
$GPGGA,091056.000,4825.1021,N,00428.4656,W,1,06,1.5,90.3,M,52.0,M,,0000*7C
$GPGGA,091058.000,4825.1021,N,00428.4656,W,1,06,1.5,90.3,M,52.0,M,,0000*72
$GPGGA,091059.000,4825.1021,N,00428.4656,W,1,06,1.5,90.3,M,52.0,M,,0000*73
$GPGGA,091101.000,4825.1021,N,00428.4656,W,1,06,1.5,90.3,M,52.0,M,,0000*7F
$GPGGA,091103.000,4825.1021,N,00428.4656,W,1,06,1.5,90.3,M,52.0,M,,0000*7D
$GPGGA,091104.000,4825.1021,N,00428.4656,W,1,06,1.5,90.3,M,52.0,M,,0000*7A
$GPGGA,091106.000,4825.1021,N,00428.4656,W,1,06,1.5,90.3,M,52.0,M,,0000*78
$GPGGA,091108.000,4825.1021,N,00428.4656,W,1,06,1.5,90.3,M,52.0,M,,0000*76
$GPGGA,091109.000,4825.1021,N,00428.4656,W,1,06,1.5,90.3,M,52.0,M,,0000*77
$GPGGA,091111.000,4825.1021,N,00428.4656,W,1,06,1.5,90.3,M,52.0,M,,0000*7E
$GPGGA,091113.000,4825.1021,N,00428.4656,W,1,06,1.5,90.3,M,52.0,M,,0000*7C
$GPGGA,091114.000,4825.1021,N,00428.4656,W,1,06,1.5,90.3,M,52.0,M,,0000*7B
$GPGGA,091116.000,4825.1021,N,00428.4656,W,1,06,1.5,90.3,M,52.0,M,,0000*79
$GPGGA,091118.000,4825.1021,N,00428.4656,W,1,06,1.5,90.3,M,52.0,M,,0000*77
$GPGGA,091119.000,4825.1021,N,00428.4656,W,1,06,1.5,90.3,M,52.0,M,,0000*76
$GPGGA,091121.000,4825.1021,N,00428.4656,W,1,06,1.5,90.3,M,52.0,M,,0000*7D
$GPGGA,091123.000,4825.1021,N,00428.4656,W,1,06,1.5,90.3,M,52.0,M,,0000*7F
$GPGGA,091124.000,4825.1021,N,00428.4656,W,1,06,1.5,90.3,M,52.0,M,,0000*78
$GPGGA,091126.000,4825.1021,N,00428.4656,W,1,06,1.5,90.3,M,52.0,M,,0000*7A
$GPGGA,091128.000,4825.1021,N,00428.4656,W,1,06,1.5,90.3,M,52.0,M,,0000*74
$GPGGA,091129.000,4825.1021,N,00428.4656,W,1,06,1.5,90.3,M,52.0,M,,0000*75
$GPGGA,091131.000,4825.1021,N,00428.4656,W,1,06,1.5,90.3,M,52.0,M,,0000*7C
$GPGGA,091133.000,4825.1021,N,00428.4656,W,1,06,1.5,90.3,M,52.0,M,,0000*7E
$GPGGA,091134.000,4825.1021,N,00428.4656,W,1,06,1.5,90.3,M,52.0,M,,0000*79
$GPGGA,091136.000,4825.1021,N,00428.4656,W,1,06,1.5,90.3,M,52.0,M,,0000*7B
$GPGGA,091138.000,4825.1021,N,00428.4656,W,1,06,1.5,90.3,M,52.0,M,,0000*75
$GPGGA,091139.000,4825.1021,N,00428.4656,W,1,06,1.5,90.3,M,52.0,M,,0000*74
$GPGGA,091141.000,4825.1021,N,00428.4656,W,1,06,1.5,90.3,M,52.0,M,,0000*7B
$GPGGA,091143.000,4825.1021,N,00428.4656,W,1,06,1.5,90.3,M,52.0,M,,0000*79
$GPGGA,091144.000,4825.1021,N,00428.4656,W,1,06,1.5,90.3,M,52.0,M,,0000*7E
$GPGGA,091146.000,4825.1021,N,00428.4656,W,1,06,1.5,90.3,M,52.0,M,,0000*7C
$GPGGA,091148.000,4825.1021,N,00428.4656,W,1,06,1.6,90.3,M,52.0,M,,0000*71
$GPGGA,091149.000,4825.1021,N,00428.4656,W,1,06,1.6,90.3,M,52.0,M,,0000*70
$GPGGA,091151.000,4825.1021,N,00428.4656,W,1,06,1.6,90.3,M,52.0,M,,0000*79
$GPGGA,091153.000,4825.1021,N,00428.4656,W,1,06,1.6,90.3,M,52.0,M,,0000*7B
$GPGGA,091154.000,4825.1021,N,00428.4656,W,1,06,1.6,90.3,M,52.0,M,,0000*7C
$GPGGA,091156.000,4825.1021,N,00428.4656,W,1,06,1.6,90.3,M,52.0,M,,0000*7E
$GPGGA,091158.000,4825.1021,N,00428.4656,W,1,06,1.6,90.3,M,52.0,M,,0000*70
$GPGGA,091159.000,4825.1021,N,00428.4656,W,1,06,1.6,90.3,M,52.0,M,,0000*71
$GPGGA,091201.000,4825.1021,N,00428.4656,W,1,06,1.6,90.3,M,52.0,M,,0000*7F
$GPGGA,091203.000,4825.1021,N,00428.4656,W,1,06,1.6,90.3,M,52.0,M,,0000*7D
$GPGGA,091204.000,4825.1021,N,00428.4656,W,1,06,1.6,90.3,M,52.0,M,,0000*7A
$GPGGA,091206.000,4825.1021,N,00428.4656,W,1,06,1.6,90.3,M,52.0,M,,0000*78
$GPGGA,091208.000,4825.1021,N,00428.4656,W,1,06,1.6,90.3,M,52.0,M,,0000*76
$GPGGA,091209.000,4825.1021,N,00428.4656,W,1,06,1.6,90.3,M,52.0,M,,0000*77
$GPGGA,091211.000,4825.1021,N,00428.4656,W,1,06,1.6,90.3,M,52.0,M,,0000*7E
$GPGGA,091213.000,4825.1021,N,00428.4656,W,1,06,1.6,90.3,M,52.0,M,,0000*7C
$GPGGA,091214.000,4825.1021,N,00428.4656,W,1,06,1.6,90.3,M,52.0,M,,0000*7B
$GPGGA,091216.000,4825.1021,N,00428.4656,W,1,06,1.6,90.3,M,52.0,M,,0000*79
$GPGGA,091218.000,4825.1021,N,00428.4656,W,1,06,1.6,90.3,M,52.0,M,,0000*77
$GPGGA,091219.000,4825.1021,N,00428.4656,W,1,06,1.6,90.3,M,52.0,M,,0000*76
$GPGGA,091221.000,4825.1021,N,00428.4656,W,1,06,1.6,90.3,M,52.0,M,,0000*7D
$GPGGA,091223.000,4825.1021,N,00428.4656,W,1,06,1.6,90.3,M,52.0,M,,0000*7F
$GPGGA,091224.000,4825.1021,N,00428.4656,W,1,06,1.6,90.3,M,52.0,M,,0000*78
$GPGGA,091226.000,4825.1021,N,00428.4656,W,1,06,1.6,90.3,M,52.0,M,,0000*7A
$GPGGA,091228.000,4825.1021,N,00428.4656,W,1,06,1.6,90.3,M,52.0,M,,0000*74
$GPGGA,091229.000,4825.1021,N,00428.4656,W,1,06,1.6,90.3,M,52.0,M,,0000*75
$GPGGA,091231.000,4825.1021,N,00428.4656,W,1,06,1.6,90.3,M,52.0,M,,0000*7C
$GPGGA,091233.000,4825.1021,N,00428.4656,W,1,06,1.6,90.3,M,52.0,M,,0000*7E
$GPGGA,091234.000,4825.1021,N,00428.4656,W,1,06,1.6,90.3,M,52.0,M,,0000*79
$GPGGA,091236.000,4825.1021,N,00428.4656,W,1,06,1.6,90.3,M,52.0,M,,0000*7B
$GPGGA,091238.000,4825.1021,N,00428.4656,W,1,06,1.6,90.3,M,52.0,M,,0000*75
$GPGGA,091239.000,4825.1021,N,00428.4656,W,1,06,1.6,90.3,M,52.0,M,,0000*74
$GPGGA,091241.000,4825.1021,N,00428.4656,W,1,06,1.6,90.3,M,52.0,M,,0000*7B
$GPGGA,091243.000,4825.1021,N,00428.4656,W,1,06,1.6,90.3,M,52.0,M,,0000*79
$GPGGA,091244.000,4825.1021,N,00428.4656,W,1,06,1.6,90.3,M,52.0,M,,0000*7E
$GPGGA,091246.000,4825.1021,N,00428.4656,W,1,06,1.6,90.3,M,52.0,M,,0000*7C
$GPGGA,091248.000,4825.1021,N,00428.4656,W,1,06,1.6,90.3,M,52.0,M,,0000*72
$GPGGA,091249.000,4825.1021,N,00428.4656,W,1,06,1.6,90.3,M,52.0,M,,0000*73
$GPGGA,091251.000,4825.1021,N,00428.4656,W,1,06,1.6,90.3,M,52.0,M,,0000*7A
$GPGGA,091253.000,4825.1021,N,00428.4656,W,1,06,1.6,90.3,M,52.0,M,,0000*78
$GPGGA,091254.000,4825.1021,N,00428.4656,W,1,06,1.6,90.3,M,52.0,M,,0000*7F
$GPGGA,091256.000,4825.1021,N,00428.4656,W,1,06,1.6,90.3,M,52.0,M,,0000*7D
$GPGGA,091258.000,4825.1021,N,00428.4656,W,1,06,1.6,90.3,M,52.0,M,,0000*73
$GPGGA,091259.000,4825.1021,N,00428.4656,W,1,06,1.6,90.3,M,52.0,M,,0000*72
$GPGGA,091301.000,4825.1021,N,00428.4656,W,1,06,1.6,90.3,M,52.0,M,,0000*7E
$GPGGA,091303.000,4825.1021,N,00428.4656,W,1,06,1.6,90.3,M,52.0,M,,0000*7C
$GPGGA,091304.000,4825.1021,N,00428.4656,W,1,06,1.6,90.3,M,52.0,M,,0000*7B
$GPGGA,091306.000,4825.1021,N,00428.4656,W,1,06,1.6,90.3,M,52.0,M,,0000*79
$GPGGA,091308.000,4825.1021,N,00428.4656,W,1,06,1.6,90.3,M,52.0,M,,0000*77
$GPGGA,091309.000,4825.1021,N,00428.4656,W,1,06,1.6,90.3,M,52.0,M,,0000*76
$GPGGA,091311.000,4825.1021,N,00428.4656,W,1,06,1.6,90.3,M,52.0,M,,0000*7F
$GPGGA,091315.000,4825.1021,N,00428.4656,W,1,06,1.6,90.3,M,52.0,M,,0000*7B
$GPGGA,091317.000,4825.1021,N,00428.4656,W,1,06,1.6,90.3,M,52.0,M,,0000*79
$GPGGA,091320.000,4825.1021,N,00428.4656,W,1,06,1.6,90.3,M,52.0,M,,0000*7D
$GPGGA,091322.000,4825.1021,N,00428.4656,W,1,06,1.6,90.3,M,52.0,M,,0000*7F
$GPGGA,091325.000,4825.1021,N,00428.4656,W,1,07,1.1,90.3,M,52.0,M,,0000*7E
$GPGGA,091327.000,4825.1021,N,00428.4655,W,1,07,1.1,90.2,M,52.0,M,,0000*7E
$GPGGA,091330.000,4825.1021,N,00428.4655,W,1,07,1.1,90.2,M,52.0,M,,0000*78
$GPGGA,091332.000,4825.1021,N,00428.4655,W,1,07,1.1,90.1,M,52.0,M,,0000*79
$GPGGA,091335.000,4825.1021,N,00428.4655,W,1,07,1.1,90.1,M,52.0,M,,0000*7E
$GPGGA,091337.000,4825.1021,N,00428.4655,W,1,07,1.1,90.1,M,52.0,M,,0000*7C
$GPGGA,091340.000,4825.1021,N,00428.4655,W,1,07,1.1,90.0,M,52.0,M,,0000*7D
$GPGGA,091342.000,4825.1021,N,00428.4655,W,1,07,1.1,90.0,M,52.0,M,,0000*7F
$GPGGA,091345.000,4825.1021,N,00428.4655,W,1,07,1.1,90.0,M,52.0,M,,0000*78
$GPGGA,091347.000,4825.1021,N,00428.4655,W,1,07,1.1,90.0,M,52.0,M,,0000*7A
$GPGGA,091350.000,4825.1021,N,00428.4655,W,1,07,1.1,89.9,M,52.0,M,,0000*7D
$GPGGA,091352.000,4825.1021,N,00428.4655,W,1,07,1.1,89.9,M,52.0,M,,0000*7F
$GPGGA,091355.000,4825.1021,N,00428.4655,W,1,07,1.1,89.9,M,52.0,M,,0000*78
$GPGGA,091357.000,4825.1021,N,00428.4655,W,1,07,1.1,89.9,M,52.0,M,,0000*7A
$GPGGA,091400.000,4825.1021,N,00428.4655,W,1,07,1.1,89.9,M,52.0,M,,0000*7F
$GPGGA,091402.000,4825.1021,N,00428.4655,W,1,07,1.1,89.9,M,52.0,M,,0000*7D
$GPGGA,091405.000,4825.1021,N,00428.4655,W,1,07,1.1,89.9,M,52.0,M,,0000*7A
$GPGGA,091407.000,4825.1021,N,00428.4655,W,1,07,1.1,89.9,M,52.0,M,,0000*78
$GPGGA,091410.000,4825.1021,N,00428.4655,W,1,07,1.1,89.9,M,52.0,M,,0000*7E
$GPGGA,091412.000,4825.1021,N,00428.4655,W,1,07,1.1,89.9,M,52.0,M,,0000*7C
$GPGGA,091415.000,4825.1021,N,00428.4655,W,1,07,1.1,89.9,M,52.0,M,,0000*7B
$GPGGA,091417.000,4825.1021,N,00428.4655,W,1,07,1.1,89.9,M,52.0,M,,0000*79
$GPGGA,091420.000,4825.1021,N,00428.4655,W,1,07,1.1,89.9,M,52.0,M,,0000*7D
$GPGGA,091422.000,4825.1021,N,00428.4655,W,1,07,1.1,89.9,M,52.0,M,,0000*7F
$GPGGA,091425.000,4825.1021,N,00428.4656,W,1,07,1.1,89.9,M,52.0,M,,0000*7B
$GPGGA,091427.000,4825.1021,N,00428.4656,W,1,07,1.1,89.9,M,52.0,M,,0000*79
$GPGGA,091430.000,4825.1021,N,00428.4656,W,1,07,1.1,89.9,M,52.0,M,,0000*7F
$GPGGA,091432.000,4825.1021,N,00428.4656,W,1,07,1.1,89.9,M,52.0,M,,0000*7D
$GPGGA,091435.000,4825.1021,N,00428.4656,W,1,08,0.9,89.9,M,52.0,M,,0000*7C
$GPGGA,091437.000,4825.1021,N,00428.4656,W,1,08,0.9,89.9,M,52.0,M,,0000*7E
$GPGGA,091440.000,4825.1021,N,00428.4656,W,1,08,0.9,89.9,M,52.0,M,,0000*7E
$GPGGA,091442.000,4825.1021,N,00428.4656,W,1,07,1.1,89.9,M,52.0,M,,0000*7A
$GPGGA,091445.000,4825.1021,N,00428.4656,W,1,08,0.9,89.9,M,52.0,M,,0000*7B
$GPGGA,091447.000,4825.1021,N,00428.4656,W,1,08,0.9,89.9,M,52.0,M,,0000*79
$GPGGA,091450.000,4825.1021,N,00428.4656,W,1,08,0.9,89.9,M,52.0,M,,0000*7F
$GPGGA,091452.000,4825.1021,N,00428.4656,W,1,08,0.9,89.9,M,52.0,M,,0000*7D
$GPGGA,091455.000,4825.1021,N,00428.4656,W,1,08,0.9,89.9,M,52.0,M,,0000*7A
$GPGGA,091457.000,4825.1021,N,00428.4656,W,1,08,0.9,89.9,M,52.0,M,,0000*78
$GPGGA,091500.000,4825.1021,N,00428.4656,W,1,08,0.9,89.9,M,52.0,M,,0000*7B
$GPGGA,091502.000,4825.1021,N,00428.4656,W,1,07,1.1,89.9,M,52.0,M,,0000*7F
$GPGGA,091505.000,4825.1021,N,00428.4656,W,1,07,1.1,89.9,M,52.0,M,,0000*78
$GPGGA,091507.000,4825.1021,N,00428.4656,W,1,08,0.9,89.9,M,52.0,M,,0000*7C
$GPGGA,091510.000,4825.1021,N,00428.4656,W,1,07,1.1,89.9,M,52.0,M,,0000*7C
$GPGGA,091512.000,4825.1021,N,00428.4656,W,1,07,1.1,89.9,M,52.0,M,,0000*7E
$GPGGA,091515.000,4825.1021,N,00428.4656,W,1,07,1.1,89.9,M,52.0,M,,0000*79
$GPGGA,091517.000,4825.1021,N,00428.4656,W,1,07,1.1,89.9,M,52.0,M,,0000*7B
$GPGGA,091520.000,4825.1021,N,00428.4656,W,1,07,1.1,89.9,M,52.0,M,,0000*7F
$GPGGA,091522.000,4825.1021,N,00428.4656,W,1,07,1.1,89.9,M,52.0,M,,0000*7D
$GPGGA,091525.000,4825.1021,N,00428.4656,W,1,07,1.1,89.9,M,52.0,M,,0000*7A
$GPGGA,091527.000,4825.1021,N,00428.4656,W,1,07,1.1,89.9,M,52.0,M,,0000*78
$GPGGA,091530.000,4825.1021,N,00428.4656,W,1,07,1.1,89.9,M,52.0,M,,0000*7E
$GPGGA,091532.000,4825.1021,N,00428.4656,W,1,07,1.1,89.9,M,52.0,M,,0000*7C
$GPGGA,091535.000,4825.1021,N,00428.4656,W,1,07,1.1,89.9,M,52.0,M,,0000*7B
$GPGGA,091537.000,4825.1021,N,00428.4656,W,1,07,1.1,89.9,M,52.0,M,,0000*79
$GPGGA,091540.000,4825.1021,N,00428.4656,W,1,07,1.1,89.9,M,52.0,M,,0000*79
$GPGGA,091542.000,4825.1021,N,00428.4656,W,1,07,1.1,89.9,M,52.0,M,,0000*7B
$GPGGA,091545.000,4825.1021,N,00428.4656,W,1,07,1.1,89.9,M,52.0,M,,0000*7C
$GPGGA,091547.000,4825.1021,N,00428.4656,W,1,07,1.1,89.9,M,52.0,M,,0000*7E
$GPGGA,091550.000,4825.1021,N,00428.4656,W,1,07,1.1,89.9,M,52.0,M,,0000*78
$GPGGA,091552.000,4825.1021,N,00428.4656,W,1,07,1.1,89.9,M,52.0,M,,0000*7A
$GPGGA,091555.000,4825.1021,N,00428.4656,W,1,07,1.1,89.9,M,52.0,M,,0000*7D
$GPGGA,091557.000,4825.1021,N,00428.4656,W,1,07,1.1,89.9,M,52.0,M,,0000*7F
$GPGGA,091600.000,4825.1021,N,00428.4656,W,1,07,1.1,89.9,M,52.0,M,,0000*7E
$GPGGA,091602.000,4825.1021,N,00428.4656,W,1,07,1.1,89.9,M,52.0,M,,0000*7C
$GPGGA,091605.000,4825.1021,N,00428.4656,W,1,07,1.1,89.9,M,52.0,M,,0000*7B
$GPGGA,091607.000,4825.1021,N,00428.4656,W,1,07,1.1,89.9,M,52.0,M,,0000*79
$GPGGA,091610.000,4825.1021,N,00428.4656,W,1,07,1.1,89.9,M,52.0,M,,0000*7F
$GPGGA,091612.000,4825.1021,N,00428.4656,W,1,07,1.1,89.9,M,52.0,M,,0000*7D
$GPGGA,091615.000,4825.1021,N,00428.4656,W,1,07,1.1,89.9,M,52.0,M,,0000*7A
$GPGGA,091617.000,4825.1021,N,00428.4656,W,1,07,1.1,89.9,M,52.0,M,,0000*78
$GPGGA,091620.000,4825.1021,N,00428.4656,W,1,07,1.1,89.9,M,52.0,M,,0000*7C
$GPGGA,091622.000,4825.1021,N,00428.4656,W,1,07,1.1,89.9,M,52.0,M,,0000*7E
$GPGGA,091625.000,4825.1021,N,00428.4656,W,1,07,1.1,89.9,M,52.0,M,,0000*79
$GPGGA,091627.000,4825.1021,N,00428.4656,W,1,07,1.1,89.9,M,52.0,M,,0000*7B
$GPGGA,091630.000,4825.1021,N,00428.4656,W,1,07,1.1,89.9,M,52.0,M,,0000*7D
$GPGGA,091632.000,4825.1021,N,00428.4656,W,1,07,1.1,89.9,M,52.0,M,,0000*7F
$GPGGA,091635.000,4825.1021,N,00428.4656,W,1,07,1.1,89.9,M,52.0,M,,0000*78
$GPGGA,091637.000,4825.1021,N,00428.4656,W,1,07,1.1,89.9,M,52.0,M,,0000*7A
$GPGGA,091640.000,4825.1021,N,00428.4656,W,1,07,1.1,89.9,M,52.0,M,,0000*7A
$GPGGA,091642.000,4825.1021,N,00428.4656,W,1,07,1.1,89.9,M,52.0,M,,0000*78
$GPGGA,091645.000,4825.1021,N,00428.4656,W,1,07,1.1,89.9,M,52.0,M,,0000*7F
$GPGGA,091647.000,4825.1021,N,00428.4656,W,1,07,1.1,89.9,M,52.0,M,,0000*7D
$GPGGA,091650.000,4825.1021,N,00428.4656,W,1,07,1.1,89.9,M,52.0,M,,0000*7B
$GPGGA,091652.000,4825.1021,N,00428.4656,W,1,07,1.1,89.9,M,52.0,M,,0000*79
$GPGGA,091655.000,4825.1021,N,00428.4656,W,1,07,1.1,89.9,M,52.0,M,,0000*7E
$GPGGA,091657.000,4825.1021,N,00428.4656,W,1,07,1.1,89.9,M,52.0,M,,0000*7C
$GPGGA,091700.000,4825.1021,N,00428.4656,W,1,07,1.1,89.9,M,52.0,M,,0000*7F
$GPGGA,091702.000,4825.1021,N,00428.4656,W,1,07,1.1,89.9,M,52.0,M,,0000*7D
$GPGGA,091705.000,4825.1021,N,00428.4656,W,1,07,1.1,89.9,M,52.0,M,,0000*7A
$GPGGA,091707.000,4825.1021,N,00428.4656,W,1,07,1.1,89.9,M,52.0,M,,0000*78
$GPGGA,091710.000,4825.1021,N,00428.4656,W,1,07,1.1,89.9,M,52.0,M,,0000*7E
$GPGGA,091712.000,4825.1021,N,00428.4656,W,1,07,1.1,89.9,M,52.0,M,,0000*7C
$GPGGA,091715.000,4825.1021,N,00428.4656,W,1,07,1.1,89.9,M,52.0,M,,0000*7B
$GPGGA,091717.000,4825.1021,N,00428.4656,W,1,07,1.1,89.9,M,52.0,M,,0000*79
$GPGGA,091720.000,4825.1021,N,00428.4656,W,1,07,1.1,89.9,M,52.0,M,,0000*7D
$GPGGA,091722.000,4825.1021,N,00428.4656,W,1,07,1.1,89.9,M,52.0,M,,0000*7F
$GPGGA,091725.000,4825.1021,N,00428.4656,W,1,07,1.1,89.9,M,52.0,M,,0000*78
$GPGGA,091727.000,4825.1021,N,00428.4656,W,1,07,1.1,89.9,M,52.0,M,,0000*7A
$GPGGA,091730.000,4825.1021,N,00428.4656,W,1,07,1.1,89.9,M,52.0,M,,0000*7C
$GPGGA,091732.000,4825.1021,N,00428.4656,W,1,07,1.1,89.9,M,52.0,M,,0000*7E
$GPGGA,091735.000,4825.1021,N,00428.4656,W,1,07,1.1,89.9,M,52.0,M,,0000*79
$GPGGA,091737.000,4825.1021,N,00428.4656,W,1,07,1.1,89.9,M,52.0,M,,0000*7B
$GPGGA,091740.000,4825.1021,N,00428.4656,W,1,07,1.1,89.9,M,52.0,M,,0000*7B
$GPGGA,091742.000,4825.1021,N,00428.4656,W,1,07,1.1,89.9,M,52.0,M,,0000*79
$GPGGA,091745.000,4825.1021,N,00428.4656,W,1,07,1.1,89.9,M,52.0,M,,0000*7E
$GPGGA,091747.000,4825.1021,N,00428.4656,W,1,07,1.1,89.9,M,52.0,M,,0000*7C
$GPGGA,091750.000,4825.1021,N,00428.4656,W,1,07,1.1,89.9,M,52.0,M,,0000*7A
$GPGGA,091752.000,4825.1021,N,00428.4656,W,1,07,1.1,89.9,M,52.0,M,,0000*78
$GPGGA,091755.000,4825.1021,N,00428.4656,W,1,07,1.1,89.9,M,52.0,M,,0000*7F
$GPGGA,091757.000,4825.1021,N,00428.4656,W,1,07,1.1,89.9,M,52.0,M,,0000*7D
$GPGGA,091800.000,4825.1021,N,00428.4656,W,1,07,1.1,89.9,M,52.0,M,,0000*70
$GPGGA,091802.000,4825.1021,N,00428.4656,W,1,07,1.1,89.9,M,52.0,M,,0000*72
$GPGGA,091805.000,4825.1021,N,00428.4656,W,1,07,1.1,89.9,M,52.0,M,,0000*75
$GPGGA,091807.000,4825.1021,N,00428.4656,W,1,07,1.1,89.9,M,52.0,M,,0000*77
$GPGGA,091810.000,4825.1021,N,00428.4656,W,1,07,1.1,89.9,M,52.0,M,,0000*71
$GPGGA,091812.000,4825.1021,N,00428.4656,W,1,07,1.1,89.9,M,52.0,M,,0000*73
$GPGGA,091815.000,4825.1021,N,00428.4656,W,1,07,1.1,89.9,M,52.0,M,,0000*74
$GPGGA,091817.000,4825.1021,N,00428.4656,W,1,07,1.1,89.9,M,52.0,M,,0000*76
$GPGGA,091820.000,4825.1021,N,00428.4656,W,1,07,1.1,89.9,M,52.0,M,,0000*72
$GPGGA,091822.000,4825.1021,N,00428.4656,W,1,07,1.1,89.9,M,52.0,M,,0000*70
$GPGGA,091825.000,4825.1021,N,00428.4656,W,1,07,1.1,89.9,M,52.0,M,,0000*77
$GPGGA,091827.000,4825.1021,N,00428.4656,W,1,07,1.1,89.9,M,52.0,M,,0000*75
$GPGGA,091830.000,4825.1021,N,00428.4656,W,1,07,1.1,89.9,M,52.0,M,,0000*73
$GPGGA,091832.000,4825.1021,N,00428.4656,W,1,07,1.1,89.9,M,52.0,M,,0000*71
$GPGGA,091835.000,4825.1021,N,00428.4656,W,1,07,1.1,89.9,M,52.0,M,,0000*76
$GPGGA,091837.000,4825.1021,N,00428.4656,W,1,07,1.1,89.9,M,52.0,M,,0000*74
$GPGGA,091840.000,4825.1021,N,00428.4656,W,1,07,1.1,89.9,M,52.0,M,,0000*74
$GPGGA,091842.000,4825.1021,N,00428.4656,W,1,07,1.1,89.9,M,52.0,M,,0000*76
$GPGGA,091845.000,4825.1021,N,00428.4656,W,1,07,1.1,89.9,M,52.0,M,,0000*71
$GPGGA,091847.000,4825.1021,N,00428.4656,W,1,07,1.1,89.9,M,52.0,M,,0000*73
$GPGGA,091850.000,4825.1021,N,00428.4656,W,1,07,1.1,89.9,M,52.0,M,,0000*75
$GPGGA,091852.000,4825.1021,N,00428.4656,W,1,07,1.1,89.9,M,52.0,M,,0000*77
$GPGGA,091855.000,4825.1021,N,00428.4656,W,1,07,1.1,89.9,M,52.0,M,,0000*70
$GPGGA,091857.000,4825.1021,N,00428.4656,W,1,07,1.1,89.9,M,52.0,M,,0000*72
$GPGGA,091900.000,4825.1021,N,00428.4656,W,1,07,1.1,89.9,M,52.0,M,,0000*71
$GPGGA,091902.000,4825.1021,N,00428.4656,W,1,07,1.1,89.9,M,52.0,M,,0000*73
$GPGGA,091905.000,4825.1021,N,00428.4656,W,1,07,1.1,89.9,M,52.0,M,,0000*74
$GPGGA,091907.000,4825.1021,N,00428.4656,W,1,07,1.1,89.9,M,52.0,M,,0000*76
$GPGGA,091910.000,4825.1021,N,00428.4656,W,1,07,1.1,89.9,M,52.0,M,,0000*70
$GPGGA,091912.000,4825.1021,N,00428.4656,W,1,07,1.1,89.9,M,52.0,M,,0000*72
$GPGGA,091915.000,4825.1021,N,00428.4656,W,1,07,1.1,89.9,M,52.0,M,,0000*75
$GPGGA,091917.000,4825.1021,N,00428.4656,W,1,07,1.1,89.9,M,52.0,M,,0000*77
$GPGGA,091920.000,4825.1021,N,00428.4656,W,1,07,1.1,89.9,M,52.0,M,,0000*73
$GPGGA,091922.000,4825.1021,N,00428.4656,W,1,07,1.1,89.9,M,52.0,M,,0000*71
$GPGGA,091925.000,4825.1021,N,00428.4656,W,1,07,1.1,89.9,M,52.0,M,,0000*76
$GPGGA,091927.000,4825.1021,N,00428.4656,W,1,07,1.1,89.9,M,52.0,M,,0000*74
$GPGGA,091930.000,4825.1021,N,00428.4656,W,1,07,1.1,89.9,M,52.0,M,,0000*72
$GPGGA,091932.000,4825.1021,N,00428.4656,W,1,07,1.1,89.9,M,52.0,M,,0000*70
$GPGGA,091935.000,4825.1021,N,00428.4656,W,1,07,1.1,89.9,M,52.0,M,,0000*77
$GPGGA,091937.000,4825.1021,N,00428.4656,W,1,07,1.1,89.9,M,52.0,M,,0000*75
$GPGGA,091940.000,4825.1021,N,00428.4656,W,1,07,1.1,89.9,M,52.0,M,,0000*75
$GPGGA,091942.000,4825.1021,N,00428.4656,W,1,07,1.1,89.9,M,52.0,M,,0000*77
$GPGGA,091945.000,4825.1021,N,00428.4656,W,1,07,1.1,89.9,M,52.0,M,,0000*70
$GPGGA,091947.000,4825.1021,N,00428.4656,W,1,07,1.1,89.9,M,52.0,M,,0000*72
$GPGGA,091950.000,4825.1021,N,00428.4656,W,1,07,1.1,89.9,M,52.0,M,,0000*74
$GPGGA,091952.000,4825.1021,N,00428.4656,W,1,07,1.1,89.9,M,52.0,M,,0000*76
$GPGGA,091955.000,4825.1021,N,00428.4656,W,1,07,1.1,89.9,M,52.0,M,,0000*71
$GPGGA,091957.000,4825.1021,N,00428.4656,W,1,07,1.1,89.8,M,52.0,M,,0000*72
$GPGGA,092000.000,4825.1021,N,00428.4656,W,1,07,1.1,89.8,M,52.0,M,,0000*7A
$GPGGA,092002.000,4825.1021,N,00428.4656,W,1,07,1.1,89.8,M,52.0,M,,0000*78
$GPGGA,092005.000,4825.1021,N,00428.4656,W,1,07,1.1,89.8,M,52.0,M,,0000*7F
$GPGGA,092007.000,4825.1021,N,00428.4656,W,1,07,1.1,89.8,M,52.0,M,,0000*7D
$GPGGA,092010.000,4825.1021,N,00428.4656,W,1,07,1.1,89.8,M,52.0,M,,0000*7B
$GPGGA,092012.000,4825.1021,N,00428.4656,W,1,07,1.1,89.8,M,52.0,M,,0000*79
$GPGGA,092015.000,4825.1021,N,00428.4656,W,1,07,1.1,89.8,M,52.0,M,,0000*7E
$GPGGA,092017.000,4825.1021,N,00428.4656,W,1,07,1.1,89.8,M,52.0,M,,0000*7C
$GPGGA,092020.000,4825.1021,N,00428.4656,W,1,07,1.1,89.8,M,52.0,M,,0000*78
$GPGGA,092022.000,4825.1021,N,00428.4656,W,1,07,1.1,89.8,M,52.0,M,,0000*7A
$GPGGA,092025.000,4825.1021,N,00428.4656,W,1,07,1.1,89.8,M,52.0,M,,0000*7D
$GPGGA,092027.000,4825.1021,N,00428.4656,W,1,07,1.1,89.8,M,52.0,M,,0000*7F
$GPGGA,092030.000,4825.1021,N,00428.4655,W,1,07,1.1,89.8,M,52.0,M,,0000*7A
$GPGGA,092032.000,4825.1021,N,00428.4655,W,1,07,1.1,89.8,M,52.0,M,,0000*78
$GPGGA,092035.000,4825.1021,N,00428.4655,W,1,07,1.1,89.8,M,52.0,M,,0000*7F
$GPGGA,092037.000,4825.1021,N,00428.4655,W,1,07,1.1,89.8,M,52.0,M,,0000*7D
$GPGGA,092040.000,4825.1021,N,00428.4655,W,1,07,1.1,89.8,M,52.0,M,,0000*7D
$GPGGA,092042.000,4825.1021,N,00428.4655,W,1,07,1.1,89.8,M,52.0,M,,0000*7F
$GPGGA,092045.000,4825.1021,N,00428.4655,W,1,07,1.1,89.8,M,52.0,M,,0000*78
$GPGGA,092047.000,4825.1021,N,00428.4655,W,1,07,1.1,89.8,M,52.0,M,,0000*7A
$GPGGA,092050.000,4825.1021,N,00428.4655,W,1,07,1.1,89.8,M,52.0,M,,0000*7C
$GPGGA,092052.000,4825.1021,N,00428.4655,W,1,07,1.1,89.7,M,52.0,M,,0000*71
$GPGGA,092055.000,4825.1021,N,00428.4655,W,1,07,1.1,89.7,M,52.0,M,,0000*76
$GPGGA,092057.000,4825.1021,N,00428.4655,W,1,07,1.1,89.7,M,52.0,M,,0000*74
$GPGGA,092100.000,4825.1021,N,00428.4655,W,1,07,1.1,89.7,M,52.0,M,,0000*77
$GPGGA,092102.000,4825.1021,N,00428.4655,W,1,07,1.1,89.7,M,52.0,M,,0000*75
$GPGGA,092105.000,4825.1021,N,00428.4655,W,1,07,1.1,89.7,M,52.0,M,,0000*72
$GPGGA,092107.000,4825.1021,N,00428.4655,W,1,07,1.1,89.7,M,52.0,M,,0000*70
$GPGGA,092110.000,4825.1021,N,00428.4655,W,1,07,1.1,89.7,M,52.0,M,,0000*76
$GPGGA,092112.000,4825.1021,N,00428.4655,W,1,07,1.1,89.7,M,52.0,M,,0000*74
$GPGGA,092115.000,4825.1021,N,00428.4655,W,1,07,1.1,89.7,M,52.0,M,,0000*73
$GPGGA,092117.000,4825.1021,N,00428.4655,W,1,07,1.1,89.7,M,52.0,M,,0000*71
$GPGGA,092120.000,4825.1021,N,00428.4655,W,1,07,1.1,89.7,M,52.0,M,,0000*75
$GPGGA,092122.000,4825.1021,N,00428.4655,W,1,07,1.1,89.7,M,52.0,M,,0000*77
$GPGGA,092125.000,4825.1021,N,00428.4655,W,1,07,1.1,89.7,M,52.0,M,,0000*70
$GPGGA,092127.000,4825.1021,N,00428.4655,W,1,07,1.1,89.7,M,52.0,M,,0000*72
$GPGGA,092130.000,4825.1021,N,00428.4655,W,1,07,1.1,89.7,M,52.0,M,,0000*74
$GPGGA,092132.000,4825.1021,N,00428.4655,W,1,07,1.1,89.7,M,52.0,M,,0000*76
$GPGGA,092135.000,4825.1021,N,00428.4655,W,1,07,1.1,89.7,M,52.0,M,,0000*71
$GPGGA,092137.000,4825.1021,N,00428.4655,W,1,07,1.1,89.7,M,52.0,M,,0000*73
$GPGGA,092140.000,4825.1021,N,00428.4655,W,1,07,1.1,89.7,M,52.0,M,,0000*73
$GPGGA,092142.000,4825.1021,N,00428.4655,W,1,07,1.1,89.7,M,52.0,M,,0000*71
$GPGGA,092145.000,4825.1021,N,00428.4655,W,1,07,1.1,89.7,M,52.0,M,,0000*76
$GPGGA,092147.000,4825.1021,N,00428.4655,W,1,07,1.1,89.7,M,52.0,M,,0000*74
$GPGGA,092150.000,4825.1021,N,00428.4655,W,1,07,1.1,89.7,M,52.0,M,,0000*72
$GPGGA,092152.000,4825.1021,N,00428.4655,W,1,07,1.1,89.7,M,52.0,M,,0000*70
$GPGGA,092155.000,4825.1021,N,00428.4655,W,1,07,1.1,89.7,M,52.0,M,,0000*77
$GPGGA,092157.000,4825.1021,N,00428.4655,W,1,07,1.1,89.7,M,52.0,M,,0000*75
$GPGGA,092200.000,4825.1021,N,00428.4655,W,1,07,1.1,89.7,M,52.0,M,,0000*74
$GPGGA,092202.000,4825.1021,N,00428.4655,W,1,07,1.1,89.7,M,52.0,M,,0000*76
$GPGGA,092205.000,4825.1021,N,00428.4655,W,1,07,1.1,89.7,M,52.0,M,,0000*71
