$GNGSA,A,3,32,25,14,12,29,31,06,02,24,,,,0.9,0.5,0.8,1*3E
$GNGSA,A,3,79,81,82,71,80,,,,,,,,0.9,0.5,0.8,2*35
$GPGSV,3,1,11,02,28,072,42,03,01,330,,06,12,033,38,12,41,070,47,1*63
$GPGSV,3,2,11,14,43,271,45,24,14,135,37,25,80,023,48,26,03,266,37,1*61
$GPGSV,3,3,11,29,57,183,47,31,40,304,46,32,39,242,44,1*58
$GSGSV,2,1,07,01,33,195,,04,25,136,41,05,29,147,,06,33,195,,1*6A
$GSGSV,2,2,07,07,28,143,,08,11,114,,17,34,167,42,1*50
$GLGSV,3,1,10,70,16,258,34,71,22,310,40,72,06,356,39,73,10,297,36,1*76
$GLGSV,3,2,10,79,46,090,43,80,65,334,42,81,51,059,45,82,48,150,46,1*73
$GLGSV,3,3,10,83,07,181,,88,13,024,32,1*78
$GQGSV,1,1,00,1*65
$GAGSV,2,1,08,01,58,083,45,04,10,213,34,05,17,316,38,09,27,263,40,7*7F
$GAGSV,2,2,08,13,17,036,37,21,08,096,38,24,12,282,36,26,44,089,43,7*7B
$GBGSV,3,1,10,05,09,110,,08,19,030,,11,25,044,39,13,31,054,38,1*7D
$GBGSV,3,2,10,19,10,302,36,20,05,254,34,22,01,348,,23,46,115,43,1*77
$GBGSV,3,3,10,27,13,194,34,28,53,154,43,1*70
$GIGSV,1,1,03,01,,,37,02,15,109,31,06,24,135,32,1*71
$GPGGA,084804.00,4825.1044725,N,00428.4647193,W,4,14,0.5,89.917,M,51.639,M,1.0,4095*64
$GPRMC,084804.00,A,4825.1044725,N,00428.4647193,W,0.0,0.0,170619,1.4,W,D*33
$GNGSA,A,3,32,25,14,12,29,31,06,02,24,,,,0.9,0.5,0.8,1*3E
$GNGSA,A,3,79,81,82,71,80,,,,,,,,0.9,0.5,0.8,2*35
$GPGSV,3,1,11,02,28,071,43,03,01,330,,06,12,033,39,12,41,070,47,1*60
$GPGSV,3,2,11,14,43,271,45,24,14,135,38,25,80,023,49,26,03,266,37,1*6F
$GPGSV,3,3,11,29,57,183,47,31,40,304,45,32,39,242,44,1*5B
$GSGSV,2,1,07,01,33,195,,04,25,136,41,05,29,147,,06,33,195,,1*6A
$GSGSV,2,2,07,07,28,143,,08,11,114,,17,34,167,42,1*50
$GLGSV,3,1,10,70,16,258,34,71,22,310,41,72,06,356,40,73,10,297,36,1*79
$GLGSV,3,2,10,79,46,090,43,80,65,334,42,81,51,059,45,82,48,150,45,1*70
$GLGSV,3,3,10,83,07,181,,88,13,024,33,1*79
$GQGSV,1,1,00,1*65
$GAGSV,2,1,08,01,58,083,45,04,10,213,35,05,17,316,38,09,27,263,40,7*7E
$GAGSV,2,2,08,13,17,036,37,21,08,096,38,24,12,282,36,26,44,089,43,7*7B
$GBGSV,3,1,10,05,09,110,,08,19,030,,11,25,044,38,13,31,054,38,1*7C
$GBGSV,3,2,10,19,10,302,35,20,05,254,34,22,01,348,,23,46,115,42,1*75
$GBGSV,3,3,10,27,13,194,34,28,53,154,44,1*77
$GIGSV,1,1,03,01,,,36,02,15,109,31,06,24,135,33,1*71
$GPGGA,084805.00,4825.1044724,N,00428.4647191,W,4,14,0.5,89.919,M,51.639,M,1.0,4095*68
$GPRMC,084805.00,A,4825.1044724,N,00428.4647191,W,0.0,0.0,170619,1.4,W,D*31
$GNGSA,A,3,32,25,14,12,29,31,06,02,24,,,,0.9,0.5,0.8,1*3E
$GNGSA,A,3,79,81,82,71,80,,,,,,,,0.9,0.5,0.8,2*35
$GPGSV,3,1,11,02,28,071,42,03,01,330,,06,12,033,39,12,41,070,47,1*61
$GPGSV,3,2,11,14,43,271,45,24,14,135,38,25,80,023,49,26,03,266,37,1*6F
$GPGSV,3,3,11,29,57,183,47,31,40,304,45,32,39,242,44,1*5B
$GSGSV,2,1,07,01,33,195,,04,25,136,41,05,29,147,,06,33,195,,1*6A
$GSGSV,2,2,07,07,28,143,,08,11,114,,17,34,167,42,1*50
$GLGSV,3,1,10,70,16,258,34,71,22,310,40,72,06,356,40,73,10,297,36,1*78
$GLGSV,3,2,10,79,46,090,43,80,65,334,42,81,51,059,46,82,48,150,45,1*73
$GLGSV,3,3,10,83,07,181,,88,13,024,32,1*78
$GQGSV,1,1,00,1*65
$GAGSV,2,1,08,01,58,083,45,04,10,213,35,05,17,316,38,09,27,263,40,7*7E
$GAGSV,2,2,08,13,17,036,38,21,08,096,38,24,12,282,36,26,44,088,44,7*72
$GBGSV,3,1,10,05,09,110,,08,19,030,,11,25,044,39,13,31,054,38,1*7D
$GBGSV,3,2,10,19,10,302,35,20,05,254,34,22,01,348,,23,46,115,43,1*74
$GBGSV,3,3,10,27,13,194,34,28,53,154,44,1*77
$GIGSV,1,1,03,01,,,37,02,15,109,31,06,24,135,33,1*70
$GPGGA,084807.00,4825.1044731,N,00428.4647195,W,4,14,0.5,89.914,M,51.639,M,1.0,4095*67
$GPRMC,084807.00,A,4825.1044731,N,00428.4647195,W,0.0,0.0,170619,1.4,W,D*33
$GNGSA,A,3,32,25,14,12,29,31,06,02,24,,,,1.0,0.5,0.8,1*36
$GNGSA,A,3,79,81,82,71,80,,,,,,,,1.0,0.5,0.8,2*3D
$GPGSV,3,1,11,02,28,071,42,03,01,330,,06,12,033,40,12,41,070,47,1*6F
$GPGSV,3,2,11,14,43,271,45,24,14,135,38,25,80,023,49,26,03,266,36,1*6E
$GPGSV,3,3,11,29,57,183,47,31,40,304,46,32,39,242,45,1*59
$GSGSV,2,1,07,01,33,195,,04,25,136,41,05,29,147,,06,33,195,,1*6A
$GSGSV,2,2,07,07,28,143,,08,11,114,,17,34,167,41,1*53
$GLGSV,3,1,10,70,16,258,33,71,22,310,40,72,06,356,40,73,10,297,37,1*7E
$GLGSV,3,2,10,79,46,090,43,80,65,334,41,81,51,059,45,82,48,150,44,1*72
$GLGSV,3,3,10,83,07,181,,88,13,024,32,1*78
$GQGSV,1,1,00,1*65
$GAGSV,2,1,08,01,58,083,46,04,10,213,35,05,17,316,39,09,27,263,39,7*72
$GAGSV,2,2,08,13,17,036,38,21,08,096,37,24,12,282,35,26,44,088,44,7*7E
$GBGSV,3,1,10,05,09,110,,08,19,030,,11,25,044,38,13,31,054,38,1*7C
$GBGSV,3,2,10,19,10,302,35,20,05,254,34,22,01,348,,23,46,115,43,1*74
$GBGSV,3,3,10,27,13,194,33,28,54,154,43,1*70
$GIGSV,1,1,03,01,,,36,02,15,109,31,06,24,135,32,1*70
$GPGGA,084808.00,4825.1044739,N,00428.4647191,W,4,14,0.5,89.920,M,51.639,M,1.0,4095*63
$GPRMC,084808.00,A,4825.1044739,N,00428.4647191,W,0.0,0.0,170619,1.4,W,D*30
$GNGSA,A,3,32,25,14,12,29,31,06,02,24,,,,1.0,0.5,0.8,1*36
$GNGSA,A,3,79,81,82,71,80,,,,,,,,1.0,0.5,0.8,2*3D
$GPGSV,3,1,11,02,28,071,42,03,01,330,,06,12,033,40,12,41,070,47,1*6F
$GPGSV,3,2,11,14,43,271,45,24,14,135,38,25,80,023,49,26,03,266,36,1*6E
$GPGSV,3,3,11,29,57,183,47,31,40,304,46,32,39,242,44,1*58
$GSGSV,2,1,07,01,33,195,,04,25,136,41,05,29,147,,06,33,195,,1*6A
$GSGSV,2,2,07,07,28,143,,08,11,114,,17,34,167,42,1*50
$GLGSV,3,1,10,70,16,258,33,71,22,310,41,72,06,356,40,73,10,297,37,1*7F
$GLGSV,3,2,10,79,46,090,43,80,65,334,41,81,51,059,45,82,48,150,44,1*72
$GLGSV,3,3,10,83,07,181,,88,13,024,33,1*79
$GQGSV,1,1,00,1*65
$GAGSV,2,1,08,01,58,083,46,04,10,213,36,05,17,316,39,09,27,263,40,7*7F
$GAGSV,2,2,08,13,17,036,38,21,08,096,38,24,12,282,36,26,44,088,44,7*72
$GBGSV,3,1,10,05,09,110,,08,19,030,,11,25,044,38,13,31,054,38,1*7C
$GBGSV,3,2,10,19,10,302,35,20,05,254,34,22,01,348,,23,46,115,43,1*74
$GBGSV,3,3,10,27,13,194,33,28,54,154,43,1*70
$GIGSV,1,1,03,01,,,37,02,15,109,31,06,24,135,33,1*70
$GPGGA,084809.00,4825.1044742,N,00428.4647191,W,4,14,0.5,89.918,M,51.639,M,1.0,4095*65
$GPRMC,084809.00,A,4825.1044742,N,00428.4647191,W,0.0,0.0,170619,1.4,W,D*3D
$GNGSA,A,3,32,25,14,12,29,31,06,02,24,,,,1.0,0.5,0.8,1*36
$GNGSA,A,3,79,81,82,71,80,,,,,,,,1.0,0.5,0.8,2*3D
$GPGSV,3,1,11,02,28,071,42,03,01,330,,06,12,033,40,12,41,070,47,1*6F
$GPGSV,3,2,11,14,43,271,45,24,14,135,38,25,80,023,48,26,03,266,36,1*6F
$GPGSV,3,3,11,29,57,183,47,31,40,304,46,32,39,242,44,1*58
$GSGSV,2,1,07,01,33,195,,04,25,136,41,05,29,147,,06,33,195,,1*6A
$GSGSV,2,2,07,07,28,143,,08,11,114,,17,34,167,41,1*53
$GLGSV,3,1,10,70,16,258,34,71,22,310,41,72,06,356,40,73,10,297,37,1*78
$GLGSV,3,2,10,79,46,090,44,80,65,334,42,81,51,059,45,82,48,150,44,1*76
$GLGSV,3,3,10,83,07,181,,88,13,024,32,1*78
$GQGSV,1,1,00,1*65
$GAGSV,2,1,08,01,58,083,45,04,10,213,35,05,17,316,39,09,26,263,40,7*7E
$GAGSV,2,2,08,13,17,036,38,21,08,096,37,24,12,282,36,26,44,088,43,7*7A
$GBGSV,3,1,10,05,09,110,,08,19,030,,11,25,044,38,13,31,054,38,1*7C
$GBGSV,3,2,10,19,10,302,34,20,05,254,35,22,01,348,,23,46,115,43,1*74
$GBGSV,3,3,10,27,13,194,34,28,54,154,43,1*77
$GIGSV,1,1,03,01,,,37,02,15,109,31,06,24,135,33,1*70
$GPGGA,084811.00,4825.1044728,N,00428.4647189,W,4,14,0.5,89.921,M,51.639,M,1.0,4095*63
$GPRMC,084811.00,A,4825.1044728,N,00428.4647189,W,0.0,0.0,170619,1.4,W,D*31
$GNGSA,A,3,32,25,14,12,29,31,06,02,24,,,,1.0,0.5,0.8,1*36
$GNGSA,A,3,79,81,82,71,80,,,,,,,,1.0,0.5,0.8,2*3D
$GPGSV,3,1,11,02,28,071,43,03,01,330,,06,12,033,40,12,41,070,47,1*6E
$GPGSV,3,2,11,14,43,271,45,24,14,135,37,25,80,024,49,26,03,266,36,1*66
$GPGSV,3,3,11,29,57,183,47,31,40,304,46,32,39,242,45,1*59
$GSGSV,2,1,07,01,33,195,,04,25,136,41,05,29,147,,06,33,195,,1*6A
$GSGSV,2,2,07,07,28,143,,08,11,114,,17,34,167,41,1*53
$GLGSV,3,1,10,70,16,258,34,71,22,310,41,72,06,356,39,73,10,297,37,1*76
$GLGSV,3,2,10,79,46,090,43,80,65,334,41,81,51,059,45,82,48,150,45,1*73
$GLGSV,3,3,10,83,07,181,,88,13,024,32,1*78
$GQGSV,1,1,00,1*65
$GAGSV,2,1,08,01,58,083,45,04,10,213,36,05,17,316,38,09,26,263,40,7*7C
$GAGSV,2,2,08,13,17,036,38,21,08,096,37,24,12,282,36,26,44,088,43,7*7A
$GBGSV,3,1,10,05,09,110,,08,19,030,,11,25,044,38,13,31,054,39,1*7D
$GBGSV,3,2,10,19,10,302,35,20,05,254,34,22,01,348,,23,46,115,43,1*74
$GBGSV,3,3,10,27,13,194,34,28,54,153,43,1*70
