$GPGSV,3,1,11,02,18,097,41,06,16,058,37,12,68,053,47,14,36,304,43,1*66
$GPGSV,3,2,11,19,10,036,38,22,02,334,25,24,39,123,44,25,67,265,48,1*64
$GPGSV,3,3,11,29,27,185,44,31,15,298,42,32,47,280,46,1*5F
$GSGSV,2,1,07,01,33,195,,04,25,136,42,05,29,147,,06,33,195,,1*69
$GSGSV,2,2,07,07,28,143,,08,11,114,,17,34,167,43,1*51
$GLGSV,3,1,09,66,19,228,37,67,34,284,44,68,15,339,38,75,23,086,41,1*7F
$GLGSV,3,2,09,76,61,052,44,77,38,298,40,85,34,042,42,86,44,119,45,1*71
$GLGSV,3,3,09,87,06,167,35,1*4E
$GQGSV,1,1,00,1*65
$GAGSV,3,1,09,01,54,282,45,04,38,273,43,09,14,325,38,13,33,102,42,7*7B
$GAGSV,3,2,09,15,22,044,40,19,23,209,36,21,65,063,46,26,13,152,38,7*70
$GAGSV,3,3,09,27,15,082,38,7*4A
$GBGSV,3,1,09,05,09,110,,08,21,038,32,13,27,065,36,14,19,299,34,1*79
$GBGSV,3,2,09,21,17,250,37,26,22,289,39,27,05,029,34,29,42,146,42,1*71
$GBGSV,3,3,09,30,42,069,42,1*43
$GIGSV,1,1,02,02,19,103,32,06,25,135,35,1*76
$GPGGA,075951.00,4825.1044784,N,00428.4647252,W,4,17,0.4,89.925,M,51.639,M,1.0,4095*6D
$GPRMC,075951.00,A,4825.1044784,N,00428.4647252,W,0.0,0.0,140619,1.4,W,D*3A
$GNGSA,A,3,12,25,06,32,24,19,29,14,02,31,,,0.9,0.4,0.8,1*37
$GNGSA,A,3,66,67,85,68,75,77,86,,,,,,0.9,0.4,0.8,2*39
$GPGSV,3,1,11,02,18,097,41,06,16,058,36,12,68,053,47,14,36,304,43,1*67
$GPGSV,3,2,11,19,10,036,38,22,02,334,26,24,39,123,44,25,67,265,48,1*67
$GPGSV,3,3,11,29,27,185,44,31,15,298,42,32,47,280,46,1*5F
$GSGSV,2,1,07,01,33,195,,04,25,136,42,05,29,147,,06,33,195,,1*69
$GSGSV,2,2,07,07,28,143,,08,11,114,,17,34,167,43,1*51
$GLGSV,3,1,09,66,19,228,38,67,34,284,44,68,15,339,38,75,23,086,41,1*70
$GLGSV,3,2,09,76,61,052,44,77,38,298,40,85,34,042,42,86,44,119,44,1*70
$GLGSV,3,3,09,87,06,167,35,1*4E
$GQGSV,1,1,00,1*65
$GAGSV,3,1,09,01,54,282,45,04,38,273,43,09,14,325,38,13,33,102,42,7*7B
$GAGSV,3,2,09,15,22,044,40,19,23,209,36,21,65,063,46,26,13,152,38,7*70
$GAGSV,3,3,09,27,15,082,38,7*4A
$GBGSV,3,1,09,05,09,110,,08,21,038,32,13,27,065,36,14,19,299,35,1*78
$GBGSV,3,2,09,21,17,250,38,26,22,289,39,27,05,029,35,29,42,146,42,1*7F
$GBGSV,3,3,09,30,42,069,42,1*43
$GIGSV,1,1,02,02,19,103,31,06,25,135,35,1*75
$GPGGA,075952.00,4825.1044796,N,00428.4647242,W,4,17,0.4,89.919,M,51.639,M,1.0,4095*63
$GPRMC,075952.00,A,4825.1044796,N,00428.4647242,W,0.0,0.0,140619,1.4,W,D*3B
$GNGSA,A,3,12,25,06,32,24,19,29,14,02,31,,,0.9,0.4,0.8,1*37
$GNGSA,A,3,66,67,85,68,75,77,86,,,,,,0.9,0.4,0.8,2*39
$GPGSV,3,1,11,02,18,097,41,06,16,058,37,12,68,053,47,14,36,304,42,1*67
$GPGSV,3,2,11,19,10,036,37,22,02,334,25,24,39,123,44,25,67,265,48,1*6B
$GPGSV,3,3,11,29,27,185,44,31,15,298,42,32,47,280,46,1*5F
$GSGSV,2,1,07,01,33,195,,04,25,136,42,05,29,147,,06,33,195,,1*69
$GSGSV,2,2,07,07,28,143,,08,11,114,,17,34,167,43,1*51
$GLGSV,3,1,09,66,19,228,38,67,34,284,44,68,15,339,38,75,23,086,41,1*70
$GLGSV,3,2,09,76,61,052,43,77,38,298,39,85,34,042,43,86,44,119,44,1*78
$GLGSV,3,3,09,87,06,167,36,1*4D
$GQGSV,1,1,00,1*65
$GAGSV,3,1,09,01,54,282,45,04,38,273,43,09,14,325,38,13,33,102,42,7*7B
$GAGSV,3,2,09,15,22,044,39,19,23,209,37,21,65,063,46,26,13,152,38,7*7F
$GAGSV,3,3,09,27,15,082,38,7*4A
$GBGSV,3,1,09,05,09,110,,08,21,038,32,13,27,065,37,14,19,299,35,1*79
$GBGSV,3,2,09,21,17,250,38,26,22,289,39,27,05,029,35,29,42,146,42,1*7F
$GBGSV,3,3,09,30,42,069,42,1*43
$GIGSV,1,1,02,02,19,103,31,06,25,135,36,1*76
$GPGGA,075953.00,4825.1044781,N,00428.4647254,W,4,17,0.4,89.924,M,51.639,M,1.0,4095*6D
$GPRMC,075953.00,A,4825.1044781,N,00428.4647254,W,0.0,0.0,140619,1.4,W,D*3B
$GNGSA,A,3,12,25,06,32,24,19,29,14,02,31,,,0.9,0.4,0.8,1*37
$GNGSA,A,3,66,67,85,68,75,77,86,,,,,,0.9,0.4,0.8,2*39
$GPGSV,3,1,11,02,18,097,41,06,16,058,37,12,68,053,47,14,36,304,43,1*66
$GPGSV,3,2,11,19,10,036,37,22,02,334,,24,39,123,43,25,67,265,48,1*6B
$GPGSV,3,3,11,29,27,185,43,31,15,298,42,32,47,280,46,1*58
$GSGSV,2,1,07,01,33,195,,04,25,136,41,05,29,147,,06,33,195,,1*6A
$GSGSV,2,2,07,07,28,143,,08,11,114,,17,34,167,43,1*51
$GLGSV,3,1,09,66,19,228,38,67,34,284,44,68,15,339,38,75,23,086,41,1*70
$GLGSV,3,2,09,76,61,052,44,77,38,298,39,85,34,042,42,86,44,119,43,1*79
$GLGSV,3,3,09,87,06,167,35,1*4E
$GQGSV,1,1,00,1*65
$GAGSV,3,1,09,01,54,282,45,04,38,273,44,09,14,325,38,13,33,102,41,7*7F
$GAGSV,3,2,09,15,22,044,40,19,23,209,36,21,65,063,46,26,13,152,38,7*70
$GAGSV,3,3,09,27,15,082,38,7*4A
$GBGSV,3,1,09,05,09,110,,08,21,038,33,13,27,065,37,14,19,299,35,1*78
$GBGSV,3,2,09,21,17,250,37,26,22,289,39,27,05,029,35,29,42,146,42,1*70
$GBGSV,3,3,09,30,42,069,42,1*43
$GIGSV,1,1,02,02,19,103,31,06,25,135,36,1*76
$GPGGA,075955.00,4825.1044790,N,00428.4647243,W,4,17,0.4,89.919,M,51.639,M,1.0,4095*63
$GPRMC,075955.00,A,4825.1044790,N,00428.4647243,W,0.0,0.0,140619,1.4,W,D*3B
$GNGSA,A,3,12,25,06,32,24,19,29,14,02,31,,,0.9,0.4,0.8,1*37
$GNGSA,A,3,66,67,85,68,75,77,86,,,,,,0.9,0.4,0.8,2*39
$GPGSV,3,1,11,02,18,097,40,06,16,058,37,12,67,053,47,14,36,304,43,1*68
$GPGSV,3,2,11,19,10,036,38,22,02,334,,24,39,123,44,25,67,265,49,1*62
$GPGSV,3,3,11,29,27,185,44,31,15,298,41,32,47,280,46,1*5C
$GSGSV,2,1,07,01,33,195,,04,25,136,42,05,29,147,,06,33,195,,1*69
$GSGSV,2,2,07,07,28,143,,08,11,114,,17,34,167,43,1*51
$GLGSV,3,1,09,66,19,228,37,67,34,284,44,68,15,339,38,75,23,086,41,1*7F
$GLGSV,3,2,09,76,61,052,44,77,38,298,39,85,34,042,43,86,44,119,43,1*78
$GLGSV,3,3,09,87,06,167,36,1*4D
$GQGSV,1,1,00,1*65
$GAGSV,3,1,09,01,54,282,45,04,38,273,43,09,14,325,39,13,33,102,41,7*79
$GAGSV,3,2,09,15,22,044,39,19,23,209,36,21,65,063,46,26,13,152,37,7*71
$GAGSV,3,3,09,27,15,082,38,7*4A
$GBGSV,3,1,09,05,09,110,,08,21,038,33,13,27,065,37,14,19,299,34,1*79
$GBGSV,3,2,09,21,17,250,38,26,22,289,39,27,05,029,35,29,42,146,43,1*7E
$GBGSV,3,3,09,30,42,069,42,1*43
$GIGSV,1,1,02,02,19,103,32,06,25,135,35,1*76
$GPGGA,075956.00,4825.1044790,N,00428.4647246,W,4,17,0.4,89.916,M,51.639,M,2.0,4095*69
$GPRMC,075956.00,A,4825.1044790,N,00428.4647246,W,0.0,0.0,140619,1.4,W,D*3D
$GNGSA,A,3,12,25,06,32,24,19,29,14,02,31,,,0.9,0.4,0.8,1*37
$GNGSA,A,3,66,67,85,68,75,77,86,,,,,,0.9,0.4,0.8,2*39
$GPGSV,3,1,11,02,18,097,40,06,16,058,37,12,67,053,47,14,36,304,43,1*68
$GPGSV,3,2,11,19,10,036,39,22,02,334,,24,39,123,44,25,67,265,49,1*63
$GPGSV,3,3,11,29,27,185,44,31,15,298,42,32,47,280,46,1*5F
$GSGSV,2,1,07,01,33,195,,04,25,136,42,05,29,147,,06,33,195,,1*69
$GSGSV,2,2,07,07,28,143,,08,11,114,,17,34,167,43,1*51
$GLGSV,3,1,09,66,19,228,38,67,34,284,44,68,15,339,39,75,23,086,41,1*71
$GLGSV,3,2,09,76,61,052,45,77,38,298,40,85,34,042,44,86,44,119,43,1*70
$GLGSV,3,3,09,87,06,167,36,1*4D
$GQGSV,1,1,00,1*65
$GAGSV,3,1,09,01,54,282,46,04,38,273,43,09,14,325,39,13,33,102,42,7*79
$GAGSV,3,2,09,15,22,044,39,19,23,209,36,21,65,063,46,26,13,152,37,7*71
$GAGSV,3,3,09,27,15,082,38,7*4A
$GBGSV,3,1,09,05,09,110,,08,21,038,33,13,27,065,37,14,19,299,34,1*79
$GBGSV,3,2,09,21,17,250,38,26,22,289,38,27,05,029,35,29,42,146,42,1*7E
$GBGSV,3,3,09,30,42,069,42,1*43
$GIGSV,1,1,02,02,19,103,32,06,25,135,36,1*75
$GPGGA,075957.00,4825.1044784,N,00428.4647249,W,4,17,0.4,89.919,M,51.639,M,1.0,4095*6E
$GPRMC,075957.00,A,4825.1044784,N,00428.4647249,W,0.0,0.0,140619,1.4,W,D*36
$GNGSA,A,3,12,25,06,32,24,19,29,14,02,31,,,0.9,0.4,0.8,1*37
$GNGSA,A,3,66,67,85,68,75,77,86,,,,,,0.9,0.4,0.8,2*39
$GPGSV,3,1,11,02,18,097,40,06,16,058,37,12,67,053,47,14,36,304,43,1*68
$GPGSV,3,2,11,19,10,036,38,22,02,334,,24,39,123,43,25,67,265,48,1*64
$GPGSV,3,3,11,29,27,185,44,31,15,298,42,32,47,280,46,1*5F
$GSGSV,2,1,07,01,33,195,,04,25,136,42,05,29,147,,06,33,195,,1*69
$GSGSV,2,2,07,07,28,143,,08,11,114,,17,34,167,43,1*51
$GLGSV,3,1,09,66,19,228,38,67,34,284,44,68,15,339,39,75,23,086,41,1*71
$GLGSV,3,2,09,76,61,052,44,77,38,298,40,85,34,042,43,86,44,119,43,1*76
$GLGSV,3,3,09,87,06,167,36,1*4D
$GQGSV,1,1,00,1*65
$GAGSV,3,1,09,01,54,282,45,04,38,273,43,09,14,325,39,13,33,102,42,7*7A
$GAGSV,3,2,09,15,22,044,39,19,23,209,36,21,65,063,46,26,13,152,37,7*71
$GAGSV,3,3,09,27,15,082,38,7*4A
$GBGSV,3,1,09,05,09,110,,08,21,038,33,13,27,065,37,14,19,299,34,1*79
$GBGSV,3,2,09,21,17,250,38,26,22,289,38,27,05,029,35,29,42,146,42,1*7E
$GBGSV,3,3,09,30,42,069,42,1*43
$GIGSV,1,1,02,02,19,103,32,06,25,135,35,1*76
$GPGGA,075959.00,4825.1044775,N,00428.4647246,W,4,17,0.4,89.919,M,51.639,M,1.0,4095*61
$GPRMC,075959.00,A,4825.1044775,N,00428.4647246,W,0.0,0.0,140619,1.4,W,D*39
$GNGSA,A,3,12,25,06,32,24,19,29,14,02,31,,,0.9,0.4,0.8,1*37
$GNGSA,A,3,66,67,85,68,75,77,86,,,,,,0.9,0.4,0.8,2*39
$GPGSV,3,1,11,02,18,097,40,06,16,058,38,12,67,053,47,14,36,304,43,1*67
$GPGSV,3,2,11,19,10,036,38,22,02,334,,24,39,123,44,25,67,265,49,1*62
$GPGSV,3,3,11,29,27,185,45,31,15,298,43,32,47,280,47,1*5E
$GSGSV,2,1,07,01,33,195,,04,25,136,42,05,29,147,,06,33,195,,1*69
$GSGSV,2,2,07,07,28,143,,08,11,114,,17,34,167,43,1*51
$GLGSV,3,1,09,66,19,228,38,67,34,284,44,68,15,339,39,75,23,086,41,1*71
$GLGSV,3,2,09,76,61,052,44,77,38,298,40,85,34,042,43,86,44,119,43,1*76
$GLGSV,3,3,09,87,06,167,36,1*4D
$GQGSV,1,1,00,1*65
$GAGSV,3,1,09,01,54,282,46,04,38,273,43,09,14,325,40,13,33,102,42,7*77
$GAGSV,3,2,09,15,22,044,39,19,23,209,36,21,65,063,46,26,13,152,38,7*7E
$GAGSV,3,3,09,27,15,082,38,7*4A
$GBGSV,3,1,09,05,09,110,,08,21,038,33,13,27,065,36,14,19,299,35,1*79
$GBGSV,3,2,09,21,17,250,38,26,22,289,38,27,05,029,35,29,42,146,42,1*7E
$GBGSV,3,3,09,30,42,069,42,1*43
$GIGSV,1,1,02,02,19,103,32,06,25,135,35,1*76
$GPGGA,080000.00,4825.1044780,N,00428.4647244,W,4,17,0.4,89.918,M,51.639,M,1.0,4095*67
$GPRMC,080000.00,A,4825.1044780,N,00428.4647244,W,0.0,0.0,140619,1.4,W,D*3E
$GNGSA,A,3,12,25,06,32,24,19,29,14,02,31,,,0.9,0.4,0.8,1*37
$GNGSA,A,3,66,67,85,68,75,77,86,,,,,,0.9,0.4,0.8,2*39
$GPGSV,3,1,11,02,18,097,41,06,16,058,38,12,67,053,47,14,36,304,43,1*66
$GPGSV,3,2,11,19,10,036,39,22,02,334,,24,39,123,44,25,67,265,49,1*63
$GPGSV,3,3,11,29,27,185,45,31,15,298,43,32,47,280,47,1*5E
$GSGSV,2,1,07,01,33,195,,04,25,136,42,05,29,147,,06,33,195,,1*69
$GSGSV,2,2,07,07,28,143,,08,11,114,,17,34,167,43,1*51
$GLGSV,3,1,09,66,19,228,38,67,34,284,44,68,15,339,39,75,23,086,41,1*71
$GLGSV,3,2,09,76,61,052,43,77,38,298,40,85,34,042,43,86,44,119,43,1*71
$GLGSV,3,3,09,87,06,167,35,1*4E
$GQGSV,1,1,00,1*65
$GAGSV,3,1,09,01,54,282,45,04,38,273,43,09,14,325,39,13,33,102,42,7*7A
$GAGSV,3,2,09,15,22,044,39,19,23,209,36,21,65,063,46,26,13,152,38,7*7E
$GAGSV,3,3,09,27,15,082,38,7*4A
$GBGSV,3,1,09,05,09,110,,08,21,038,32,13,27,065,37,14,19,299,34,1*78
$GBGSV,3,2,09,21,17,250,37,26,22,289,38,27,05,029,35,29,42,146,43,1*70
$GBGSV,3,3,09,30,42,069,42,1*43
$GIGSV,1,1,02,02,19,103,32,06,25,135,36,1*75
$GPGGA,080001.00,4825.1044781,N,00428.4647242,W,4,17,0.4,89.919,M,51.639,M,1.0,4095*60
$GPRMC,080001.00,A,4825.1044781,N,00428.4647242,W,0.0,0.0,140619,1.4,W,D*38
$GNGSA,A,3,12,25,06,32,24,19,29,14,02,31,,,0.9,0.4,0.8,1*37
$GNGSA,A,3,66,67,85,68,75,77,86,,,,,,0.9,0.4,0.8,2*39
$GPGSV,3,1,11,02,18,097,40,06,16,058,39,12,67,053,47,14,36,304,43,1*66
$GPGSV,3,2,11,19,10,036,38,22,02,334,,24,39,123,44,25,67,265,49,1*62
$GPGSV,3,3,11,29,27,185,44,31,15,298,43,32,47,280,47,1*5F
$GSGSV,2,1,07,01,33,195,,04,25,136,42,05,29,147,,06,33,195,,1*69
$GSGSV,2,2,07,07,28,143,,08,11,114,,17,34,167,43,1*51
$GLGSV,3,1,09,66,19,228,38,67,34,284,44,68,15,339,38,75,23,086,41,1*70
$GLGSV,3,2,09,76,61,052,44,77,38,298,40,85,34,042,43,86,44,119,43,1*76
$GLGSV,3,3,09,87,06,167,35,1*4E
$GQGSV,1,1,00,1*65
$GAGSV,3,1,09,01,54,282,45,04,38,273,43,09,14,325,39,13,34,101,42,7*7E
$GAGSV,3,2,09,15,22,044,39,19,23,209,35,21,65,063,46,26,13,152,37,7*72
$GAGSV,3,3,09,27,15,082,37,7*45
$GBGSV,3,1,09,05,09,110,,08,21,038,32,13,27,065,37,14,19,299,34,1*78
$GBGSV,3,2,09,21,17,250,37,26,22,289,38,27,05,029,35,29,42,146,43,1*70
$GBGSV,3,3,09,30,42,069,42,1*43
$GIGSV,1,1,02,02,19,103,32,06,25,135,36,1*75
$GPGGA,080003.00,4825.1044791,N,00428.4647244,W,4,17,0.4,89.920,M,51.639,M,1.0,4095*6F
$GPRMC,080003.00,A,4825.1044791,N,00428.4647244,W,0.0,0.0,140619,1.4,W,D*3D
$GNGSA,A,3,12,25,06,32,24,19,29,14,02,31,,,0.9,0.4,0.8,1*37
$GNGSA,A,3,66,67,85,68,75,77,86,,,,,,0.9,0.4,0.8,2*39
$GPGSV,3,1,11,02,18,097,40,06,16,058,38,12,67,053,47,14,36,304,43,1*67
$GPGSV,3,2,11,19,10,036,38,22,02,334,,24,39,123,44,25,67,265,49,1*62
$GPGSV,3,3,11,29,27,185,45,31,15,298,43,32,47,280,47,1*5E
$GSGSV,2,1,07,01,33,195,,04,25,136,42,05,29,147,,06,33,195,,1*69
$GSGSV,2,2,07,07,28,143,,08,11,114,,17,34,167,43,1*51
$GLGSV,3,1,09,66,19,228,37,67,34,284,44,68,15,339,39,75,23,086,41,1*7E
$GLGSV,3,2,09,76,61,052,44,77,38,298,40,85,34,042,43,86,44,119,44,1*71
$GLGSV,3,3,09,87,06,167,36,1*4D
$GQGSV,1,1,00,1*65
$GAGSV,3,1,09,01,54,282,45,04,38,273,43,09,14,325,39,13,34,101,42,7*7E
$GAGSV,3,2,09,15,22,044,39,19,23,209,35,21,65,063,46,26,13,152,36,7*73
$GAGSV,3,3,09,27,15,082,37,7*45
$GBGSV,3,1,09,05,09,110,,08,21,038,32,13,27,065,37,14,19,299,34,1*78
$GBGSV,3,2,09,21,17,250,38,26,22,289,38,27,05,029,35,29,42,146,42,1*7E
$GBGSV,3,3,09,30,42,069,42,1*43
$GIGSV,1,1,02,02,19,103,32,06,25,135,36,1*75
$GPGGA,080004.00,4825.1044792,N,00428.4647238,W,4,17,0.4,89.921,M,51.639,M,1.0,4095*61
$GPRMC,080004.00,A,4825.1044792,N,00428.4647238,W,0.0,0.0,140619,1.4,W,D*32
$GNGSA,A,3,12,25,06,32,24,19,29,14,02,31,,,0.9,0.4,0.8,1*37
$GNGSA,A,3,66,67,85,68,75,77,86,,,,,,0.9,0.4,0.8,2*39
$GPGSV,3,1,11,02,18,097,40,06,16,058,38,12,67,053,47,14,36,304,43,1*67
$GPGSV,3,2,11,19,10,036,38,22,02,334,,24,39,123,44,25,67,265,49,1*62
$GPGSV,3,3,11,29,27,185,44,31,15,298,42,32,47,280,46,1*5F
$GSGSV,2,1,07,01,33,195,,04,25,136,42,05,29,147,,06,33,195,,1*69
$GSGSV,2,2,07,07,28,143,,08,11,114,,17,34,167,43,1*51
$GLGSV,3,1,09,66,19,228,37,67,34,284,43,68,15,339,39,75,23,086,41,1*79
$GLGSV,3,2,09,76,61,052,44,77,38,298,40,85,34,042,43,86,44,119,44,1*71
$GLGSV,3,3,09,87,06,167,36,1*4D
$GQGSV,1,1,00,1*65
$GAGSV,3,1,09,01,54,282,45,04,38,273,43,09,14,325,39,13,34,101,42,7*7E
$GAGSV,3,2,09,15,22,044,39,19,23,209,36,21,65,063,46,26,13,152,37,7*71
$GAGSV,3,3,09,27,15,082,37,7*45
$GBGSV,3,1,09,05,09,110,,08,21,038,33,13,27,065,37,14,19,299,33,1*7E
$GBGSV,3,2,09,21,17,250,38,26,22,289,38,27,05,029,36,29,42,146,43,1*7C
$GBGSV,3,3,09,30,42,069,42,1*43
$GIGSV,1,1,02,02,19,103,32,06,25,135,36,1*75
$GPGGA,080005.00,4825.1044791,N,00428.4647248,W,4,17,0.4,89.920,M,51.639,M,1.0,4095*65
$GPRMC,080005.00,A,4825.1044791,N,00428.4647248,W,0.0,0.0,140619,1.4,W,D*37
$GNGSA,A,3,12,25,06,32,24,19,29,14,02,31,,,0.9,0.4,0.8,1*37
$GNGSA,A,3,66,67,85,68,75,77,86,,,,,,0.9,0.4,0.8,2*39
$GPGSV,3,1,11,02,18,097,40,06,16,058,38,12,67,053,47,14,36,304,43,1*67
$GPGSV,3,2,11,19,10,036,37,22,02,334,,24,39,123,44,25,67,265,49,1*6D
$GPGSV,3,3,11,29,27,185,44,31,15,298,42,32,47,280,47,1*5E
$GSGSV,2,1,07,01,33,195,,04,25,136,42,05,29,147,,06,33,195,,1*69
$GSGSV,2,2,07,07,28,143,,08,11,114,,17,34,167,44,1*56
$GLGSV,3,1,09,66,19,228,38,67,34,284,43,68,15,339,39,75,23,086,41,1*76
$GLGSV,3,2,09,76,61,052,44,77,38,298,40,85,34,042,43,86,44,119,44,1*71
$GLGSV,3,3,09,87,06,167,36,1*4D
$GQGSV,1,1,00,1*65
$GAGSV,3,1,09,01,54,282,45,04,38,273,43,09,14,325,39,13,34,101,42,7*7E
$GAGSV,3,2,09,15,22,044,38,19,23,209,36,21,65,063,46,26,13,152,37,7*70
$GAGSV,3,3,09,27,15,083,37,7*44
$GBGSV,3,1,09,05,09,110,,08,21,038,33,13,27,065,37,14,19,299,33,1*7E
$GBGSV,3,2,09,21,17,250,38,26,22,289,38,27,05,029,36,29,42,146,43,1*7C
$GBGSV,3,3,09,30,42,069,42,1*43
$GIGSV,1,1,02,02,19,103,32,06,25,135,35,1*76
$GPGGA,080007.00,4825.1044776,N,00428.4647256,W,4,17,0.4,89.923,M,51.639,M,2.0,4095*61
$GPRMC,080007.00,A,4825.1044776,N,00428.4647256,W,0.0,0.0,140619,1.4,W,D*33
$GNGSA,A,3,12,25,06,32,24,19,29,14,02,31,,,0.9,0.4,0.8,1*37
$GNGSA,A,3,66,67,85,68,75,77,86,,,,,,0.9,0.4,0.8,2*39
$GPGSV,3,1,11,02,18,097,41,06,16,058,36,12,67,053,47,14,36,304,43,1*68
$GPGSV,3,2,11,19,10,036,38,22,02,334,,24,39,123,44,25,67,265,49,1*62
$GPGSV,3,3,11,29,27,185,44,31,15,298,42,32,47,280,47,1*5E
$GSGSV,2,1,07,01,33,195,,04,25,136,42,05,29,147,,06,33,195,,1*69
$GSGSV,2,2,07,07,28,143,,08,11,114,,17,34,167,44,1*56
$GLGSV,3,1,09,66,19,228,38,67,34,284,43,68,15,339,40,75,23,086,42,1*7B
$GLGSV,3,2,09,76,61,052,44,77,38,298,40,85,34,042,43,86,44,119,44,1*71
$GLGSV,3,3,09,87,06,167,35,1*4E
$GQGSV,1,1,00,1*65
$GAGSV,3,1,09,01,54,282,45,04,38,273,44,09,14,325,38,13,34,101,42,7*78
$GAGSV,3,2,09,15,22,044,39,19,23,209,36,21,65,063,46,26,13,152,38,7*7E
$GAGSV,3,3,09,27,15,083,37,7*44
$GBGSV,3,1,09,05,09,110,,08,21,038,33,13,27,065,37,14,19,299,33,1*7E
$GBGSV,3,2,09,21,17,250,38,26,22,289,38,27,05,029,37,29,42,146,43,1*7D
$GBGSV,3,3,09,30,42,069,42,1*43
$GIGSV,1,1,02,02,19,103,32,06,25,135,36,1*75
$GPGGA,080008.00,4825.1044787,N,00428.4647251,W,4,17,0.4,89.920,M,51.639,M,1.0,4095*67
$GPRMC,080008.00,A,4825.1044787,N,00428.4647251,W,0.0,0.0,140619,1.4,W,D*35
$GNGSA,A,3,12,25,06,32,24,19,29,14,02,31,,,0.9,0.4,0.8,1*37
$GNGSA,A,3,66,67,85,68,75,77,86,,,,,,0.9,0.4,0.8,2*39
$GPGSV,3,1,11,02,18,097,41,06,16,058,36,12,67,053,47,14,36,304,42,1*69
$GPGSV,3,2,11,19,10,036,38,22,02,334,,24,39,123,44,25,67,265,48,1*63
$GPGSV,3,3,11,29,27,185,44,31,15,298,41,32,47,280,46,1*5C
$GSGSV,2,1,07,01,33,195,,04,25,136,42,05,29,147,,06,33,195,,1*69
$GSGSV,2,2,07,07,28,143,,08,11,114,,17,34,167,44,1*56
$GLGSV,3,1,09,66,19,228,37,67,34,284,43,68,15,339,39,75,23,086,41,1*79
$GLGSV,3,2,09,76,61,052,44,77,38,298,40,85,34,042,43,86,44,119,44,1*71
$GLGSV,3,3,09,87,06,167,35,1*4E
$GQGSV,1,1,00,1*65
$GAGSV,3,1,09,01,54,282,46,04,38,273,43,09,14,325,39,13,34,101,42,7*7D
$GAGSV,3,2,09,15,22,044,39,19,23,209,36,21,65,063,46,26,13,152,38,7*7E
$GAGSV,3,3,09,27,15,083,37,7*44
$GBGSV,3,1,09,05,09,110,,08,21,038,33,13,27,065,37,14,19,299,33,1*7E
$GBGSV,3,2,09,21,17,250,38,26,22,289,38,27,05,029,36,29,42,146,42,1*7D
$GBGSV,3,3,09,30,42,069,42,1*43
$GIGSV,1,1,02,02,19,103,32,06,25,135,36,1*75
$GPGGA,080009.00,4825.1044789,N,00428.4647255,W,4,17,0.4,89.918,M,51.639,M,1.0,4095*67
$GPRMC,080009.00,A,4825.1044789,N,00428.4647255,W,0.0,0.0,140619,1.4,W,D*3E
$GNGSA,A,3,12,25,06,32,24,19,29,14,02,31,,,0.9,0.4,0.8,1*37
$GNGSA,A,3,66,67,85,68,75,77,86,,,,,,0.9,0.4,0.8,2*39
$GPGSV,3,1,11,02,18,097,40,06,16,058,35,12,67,053,47,14,36,304,43,1*6A
$GPGSV,3,2,11,19,10,036,38,22,02,334,,24,39,123,44,25,67,265,48,1*63
$GPGSV,3,3,11,29,27,185,44,31,15,298,42,32,47,280,46,1*5F
$GSGSV,2,1,07,01,33,195,,04,25,136,42,05,29,147,,06,33,195,,1*69
$GSGSV,2,2,07,07,28,143,,08,11,114,,17,34,167,43,1*51
$GLGSV,3,1,09,66,19,228,38,67,34,284,43,68,15,339,39,75,23,086,41,1*76
$GLGSV,3,2,09,76,61,052,44,77,38,298,40,85,34,042,43,86,44,119,44,1*71
$GLGSV,3,3,09,87,06,167,35,1*4E
$GQGSV,1,1,00,1*65
$GAGSV,3,1,09,01,54,282,45,04,38,273,43,09,14,325,39,13,34,101,42,7*7E
$GAGSV,3,2,09,15,22,044,39,19,23,209,36,21,65,063,46,26,13,152,38,7*7E
$GAGSV,3,3,09,27,15,083,37,7*44
$GBGSV,3,1,09,05,09,110,,08,21,038,33,13,27,065,37,14,19,299,33,1*7E
$GBGSV,3,2,09,21,17,250,38,26,22,289,39,27,05,029,37,29,42,146,43,1*7C
$GBGSV,3,3,09,30,42,069,43,1*42
$GIGSV,1,1,02,02,19,103,32,06,25,135,36,1*75
$GPGGA,080010.00,4825.1044794,N,00428.4647264,W,4,17,0.4,89.914,M,51.639,M,1.0,4095*6D
$GPRMC,080010.00,A,4825.1044794,N,00428.4647264,W,0.0,0.0,140619,1.4,W,D*38
$GNGSA,A,3,12,25,06,32,24,19,29,14,02,31,,,0.9,0.4,0.8,1*37
$GNGSA,A,3,66,67,85,68,75,77,86,,,,,,0.9,0.4,0.8,2*39
$GPGSV,3,1,11,02,18,097,40,06,16,058,35,12,67,053,47,14,36,304,42,1*6B
$GPGSV,3,2,11,19,10,036,37,22,02,334,,24,39,123,44,25,67,265,48,1*6C
$GPGSV,3,3,11,29,27,185,45,31,15,298,42,32,47,280,46,1*5E
$GSGSV,2,1,07,01,33,195,,04,25,136,42,05,29,147,,06,33,195,,1*69
$GSGSV,2,2,07,07,28,143,,08,11,114,,17,34,167,43,1*51
$GLGSV,3,1,09,66,19,228,38,67,34,284,43,68,15,339,39,75,23,086,41,1*76
$GLGSV,3,2,09,76,61,052,44,77,38,298,40,85,34,042,42,86,44,119,44,1*70
$GLGSV,3,3,09,87,06,167,36,1*4D
$GQGSV,1,1,00,1*65
$GAGSV,3,1,09,01,54,282,45,04,38,273,43,09,14,325,39,13,34,101,42,7*7E
$GAGSV,3,2,09,15,22,044,38,19,23,209,36,21,65,063,46,26,13,152,38,7*7F
$GAGSV,3,3,09,27,15,083,37,7*44
$GBGSV,3,1,09,05,09,110,,08,21,038,33,13,27,065,37,14,19,299,33,1*7E
$GBGSV,3,2,09,21,17,250,37,26,22,289,39,27,05,029,37,29,42,146,43,1*73
$GBGSV,3,3,09,30,42,069,42,1*43
$GIGSV,1,1,02,02,19,103,32,06,25,135,36,1*75
$GPGGA,080011.00,4825.1044780,N,00428.4647250,W,4,17,0.4,89.925,M,51.639,M,1.0,4095*6C
$GPRMC,080011.00,A,4825.1044780,N,00428.4647250,W,0.0,0.0,140619,1.4,W,D*3B
$GNGSA,A,3,12,25,06,32,24,19,29,14,02,31,,,0.9,0.4,0.8,1*37
$GNGSA,A,3,66,67,85,68,75,77,86,,,,,,0.9,0.4,0.8,2*39
$GPGSV,3,1,11,02,18,097,40,06,16,058,35,12,67,053,47,14,36,304,43,1*6A
$GPGSV,3,2,11,19,10,036,37,22,02,334,,24,39,123,44,25,67,265,49,1*6D
$GPGSV,3,3,11,29,27,185,44,31,15,298,42,32,47,280,47,1*5E
$GSGSV,2,1,07,01,33,195,,04,25,136,42,05,29,147,,06,33,195,,1*69
$GSGSV,2,2,07,07,28,143,,08,11,114,,17,34,167,43,1*51
$GLGSV,3,1,09,66,19,228,38,67,34,284,44,68,15,339,40,75,23,086,41,1*7F
$GLGSV,3,2,09,76,61,052,44,77,38,298,40,85,34,042,43,86,44,119,45,1*70
$GLGSV,3,3,09,87,06,167,36,1*4D
$GQGSV,1,1,00,1*65
$GAGSV,3,1,09,01,54,282,45,04,37,273,44,09,14,325,39,13,34,101,42,7*76
$GAGSV,3,2,09,15,22,044,39,19,23,209,36,21,65,063,46,26,13,152,37,7*71
$GAGSV,3,3,09,27,15,083,37,7*44
$GBGSV,3,1,09,05,09,110,,08,21,038,33,13,27,065,37,14,19,299,33,1*7E
$GBGSV,3,2,09,21,17,250,37,26,22,289,39,27,05,029,37,29,43,146,43,1*72
$GBGSV,3,3,09,30,42,069,42,1*43
$GIGSV,1,1,02,02,19,103,32,06,25,135,36,1*75
$GPGGA,080012.00,4825.1044789,N,00428.4647237,W,4,17,0.4,89.922,M,51.639,M,1.0,4095*60
$GPRMC,080012.00,A,4825.1044789,N,00428.4647237,W,0.0,0.0,140619,1.4,W,D*30
$GNGSA,A,3,12,25,06,32,24,19,29,14,02,31,,,0.9,0.4,0.8,1*37
$GNGSA,A,3,66,67,85,68,75,77,86,,,,,,0.9,0.4,0.8,2*39
$GPGSV,3,1,11,02,18,097,40,06,16,058,35,12,67,053,47,14,36,304,43,1*6A
$GPGSV,3,2,11,19,10,036,37,22,02,334,,24,39,123,44,25,67,265,49,1*6D
$GPGSV,3,3,11,29,27,185,44,31,15,298,42,32,47,280,46,1*5F
$GSGSV,2,1,07,01,33,195,,04,25,136,42,05,29,147,,06,33,195,,1*69
$GSGSV,2,2,07,07,28,143,,08,11,114,,17,34,167,44,1*56
$GLGSV,3,1,09,66,19,228,38,67,34,284,44,68,15,339,39,75,23,086,42,1*72
$GLGSV,3,2,09,76,61,052,43,77,38,298,40,85,34,042,43,86,44,119,44,1*76
$GLGSV,3,3,09,87,06,167,36,1*4D
$GQGSV,1,1,00,1*65
$GAGSV,3,1,09,01,54,282,45,04,37,273,43,09,14,325,39,13,34,101,42,7*71
$GAGSV,3,2,09,15,22,044,39,19,23,209,36,21,65,063,46,26,13,152,37,7*71
$GAGSV,3,3,09,27,15,083,37,7*44
$GBGSV,3,1,09,05,09,110,,08,21,038,33,13,27,065,36,14,19,299,33,1*7F
$GBGSV,3,2,09,21,17,250,37,26,22,289,39,27,05,029,36,29,43,146,42,1*72
$GBGSV,3,3,09,30,42,069,42,1*43
$GIGSV,1,1,02,02,19,103,33,06,25,135,36,1*74
$GPGGA,080013.00,4825.1044794,N,00428.4647233,W,4,17,0.4,89.924,M,51.639,M,1.0,4095*6F
$GPRMC,080013.00,A,4825.1044794,N,00428.4647233,W,0.0,0.0,140619,1.4,W,D*39
$GNGSA,A,3,12,25,06,32,24,19,29,14,02,31,,,0.9,0.4,0.8,1*37
$GNGSA,A,3,66,67,85,68,75,77,86,,,,,,0.9,0.4,0.8,2*39
$GPGSV,3,1,11,02,18,097,40,06,16,058,36,12,67,053,47,14,36,304,43,1*69
$GPGSV,3,2,11,19,10,036,37,22,02,334,,24,39,123,44,25,67,265,49,1*6D
$GPGSV,3,3,11,29,27,185,44,31,15,298,42,32,47,280,46,1*5F
$GSGSV,2,1,07,01,33,195,,04,25,136,41,05,29,147,,06,33,195,,1*6A
$GSGSV,2,2,07,07,28,143,,08,11,114,,17,34,167,43,1*51
$GLGSV,3,1,09,66,19,228,38,67,34,284,44,68,15,339,40,75,23,086,41,1*7F
$GLGSV,3,2,09,76,61,052,44,77,38,298,40,85,34,042,43,86,44,119,44,1*71
$GLGSV,3,3,09,87,06,167,35,1*4E
$GQGSV,1,1,00,1*65
$GAGSV,3,1,09,01,54,282,45,04,37,273,43,09,14,325,39,13,34,101,42,7*71
$GAGSV,3,2,09,15,22,044,39,19,23,209,36,21,65,063,46,26,13,152,38,7*7E
$GAGSV,3,3,09,27,15,083,36,7*45
$GBGSV,3,1,09,05,09,110,,08,21,038,33,13,27,065,37,14,19,299,33,1*7E
$GBGSV,3,2,09,21,17,250,37,26,22,289,39,27,05,029,37,29,43,146,42,1*73
$GBGSV,3,3,09,30,42,069,43,1*42
$GIGSV,1,1,02,02,19,103,32,06,25,135,35,1*76
$GPGGA,080015.00,4825.1044788,N,00428.4647258,W,4,17,0.4,89.923,M,51.639,M,1.0,4095*6E
$GPRMC,080015.00,A,4825.1044788,N,00428.4647258,W,0.0,0.0,140619,1.4,W,D*3F
$GNGSA,A,3,12,25,06,32,24,19,29,14,02,31,,,0.9,0.4,0.8,1*37
$GNGSA,A,3,66,67,85,68,75,77,86,,,,,,0.9,0.4,0.8,2*39
$GPGSV,3,1,11,02,18,097,41,06,16,058,36,12,67,053,47,14,36,304,43,1*68
$GPGSV,3,2,11,19,10,036,36,22,02,334,,24,39,123,45,25,67,265,49,1*6D
$GPGSV,3,3,11,29,27,185,44,31,15,298,41,32,47,280,47,1*5D
$GSGSV,2,1,07,01,33,195,,04,25,136,42,05,29,147,,06,33,195,,1*69
$GSGSV,2,2,07,07,28,143,,08,11,114,,17,34,167,44,1*56
$GLGSV,3,1,09,66,18,228,37,67,34,284,44,68,15,339,40,75,23,086,41,1*71
$GLGSV,3,2,09,76,61,053,44,77,38,298,40,85,34,042,43,86,44,119,43,1*77
$GLGSV,3,3,09,87,06,167,35,1*4E
$GQGSV,1,1,00,1*65
$GAGSV,3,1,09,01,54,282,45,04,37,273,43,09,14,325,38,13,34,101,42,7*70
$GAGSV,3,2,09,15,22,044,39,19,23,209,36,21,65,063,46,26,13,152,37,7*71
$GAGSV,3,3,09,27,15,083,36,7*45
$GBGSV,3,1,09,05,09,110,,08,21,038,33,13,27,065,37,14,19,299,33,1*7E
$GBGSV,3,2,09,21,17,250,37,26,22,289,38,27,05,029,37,29,43,146,42,1*72
$GBGSV,3,3,09,30,42,069,42,1*43
$GIGSV,1,1,02,02,19,103,32,06,25,135,37,1*74
$GPGGA,080016.00,4825.1044795,N,00428.4647268,W,4,17,0.4,89.918,M,51.639,M,1.0,4095*6A
$GPRMC,080016.00,A,4825.1044795,N,00428.4647268,W,0.0,0.0,140619,1.4,W,D*33
$GNGSA,A,3,12,25,06,32,24,19,29,14,02,31,,,0.9,0.4,0.8,1*37
$GNGSA,A,3,66,67,85,68,75,77,86,,,,,,0.9,0.4,0.8,2*39
$GPGSV,3,1,11,02,18,097,41,06,16,058,37,12,67,053,47,14,36,304,43,1*69
$GPGSV,3,2,11,19,10,036,37,22,02,334,,24,39,123,45,25,67,265,49,1*6C
$GPGSV,3,3,11,29,27,185,44,31,15,298,41,32,47,280,47,1*5D
$GSGSV,2,1,07,01,33,195,,04,25,136,42,05,29,147,,06,33,195,,1*69
$GSGSV,2,2,07,07,28,143,,08,11,114,,17,34,167,44,1*56
$GLGSV,3,1,09,66,18,228,37,67,34,284,44,68,15,339,39,75,23,086,41,1*7F
$GLGSV,3,2,09,76,61,053,44,77,38,298,40,85,34,042,43,86,44,119,44,1*70
$GLGSV,3,3,09,87,06,167,35,1*4E
$GQGSV,1,1,00,1*65
$GAGSV,3,1,09,01,54,282,45,04,37,273,43,09,14,325,38,13,34,101,42,7*70
$GAGSV,3,2,09,15,22,044,39,19,23,209,36,21,65,063,46,26,13,152,37,7*71
$GAGSV,3,3,09,27,15,083,36,7*45
$GBGSV,3,1,09,05,09,110,,08,21,038,33,13,27,065,37,14,19,299,33,1*7E
$GBGSV,3,2,09,21,17,250,36,26,22,289,39,27,05,029,37,29,43,146,42,1*72
$GBGSV,3,3,09,30,42,069,42,1*43
$GIGSV,1,1,02,02,19,103,32,06,25,135,36,1*75
$GPGGA,080017.00,4825.1044797,N,00428.4647258,W,4,17,0.4,89.916,M,51.639,M,1.0,4095*64
$GPRMC,080017.00,A,4825.1044797,N,00428.4647258,W,0.0,0.0,140619,1.4,W,D*33
$GNGSA,A,3,12,25,06,32,24,19,29,14,02,31,,,0.9,0.4,0.8,1*37
$GNGSA,A,3,66,67,85,68,75,77,86,,,,,,0.9,0.4,0.8,2*39
$GPGSV,3,1,11,02,18,097,40,06,16,058,37,12,67,053,47,14,36,304,42,1*69
$GPGSV,3,2,11,19,10,036,37,22,02,334,,24,39,123,45,25,67,265,48,1*6D
$GPGSV,3,3,11,29,27,185,45,31,15,298,40,32,47,280,47,1*5D
$GSGSV,2,1,07,01,33,195,,04,25,136,42,05,29,147,,06,33,195,,1*69
$GSGSV,2,2,07,07,28,143,,08,11,114,,17,34,167,44,1*56
$GLGSV,3,1,09,66,18,228,38,67,34,284,44,68,15,339,40,75,23,086,41,1*7E
$GLGSV,3,2,09,76,61,053,45,77,38,298,40,85,34,042,43,86,44,119,44,1*71
$GLGSV,3,3,09,87,06,167,35,1*4E
$GQGSV,1,1,00,1*65
$GAGSV,3,1,09,01,54,282,45,04,37,273,43,09,14,325,38,13,34,101,42,7*70
$GAGSV,3,2,09,15,22,044,39,19,23,209,36,21,65,063,46,26,13,152,36,7*70
$GAGSV,3,3,09,27,15,083,36,7*45
$GBGSV,3,1,09,05,09,110,,08,21,038,34,13,27,065,37,14,19,299,34,1*7E
$GBGSV,3,2,09,21,17,250,36,26,22,289,39,27,05,029,38,29,43,146,43,1*7C
$GBGSV,3,3,09,30,42,069,42,1*43
$GIGSV,1,1,02,02,19,103,32,06,25,135,36,1*75
$GPGGA,080019.00,4825.1044785,N,00428.4647254,W,4,17,0.4,89.924,M,51.639,M,1.0,4095*64
$GPRMC,080019.00,A,4825.1044785,N,00428.4647254,W,0.0,0.0,140619,1.4,W,D*32
$GNGSA,A,3,12,25,06,32,24,19,29,14,02,31,,,0.9,0.4,0.8,1*37
$GNGSA,A,3,66,67,85,68,75,77,86,,,,,,0.9,0.4,0.8,2*39
$GPGSV,3,1,11,02,18,097,40,06,16,058,38,12,67,053,47,14,36,304,43,1*67
$GPGSV,3,2,11,19,10,036,37,22,02,334,,24,39,123,45,25,67,265,49,1*6C
$GPGSV,3,3,11,29,27,185,44,31,15,298,41,32,47,280,47,1*5D
$GSGSV,2,1,07,01,33,195,,04,25,136,42,05,29,147,,06,33,195,,1*69
$GSGSV,2,2,07,07,28,143,,08,11,114,,17,34,167,43,1*51
$GLGSV,3,1,09,66,18,228,37,67,34,284,44,68,15,339,39,75,23,086,42,1*7C
$GLGSV,3,2,09,76,61,053,45,77,38,298,40,85,34,042,43,86,44,119,44,1*71
$GLGSV,3,3,09,87,06,167,36,1*4D
$GQGSV,1,1,00,1*65
$GAGSV,3,1,09,01,54,282,45,04,37,273,43,09,14,325,39,13,34,101,42,7*71
$GAGSV,3,2,09,15,22,044,38,19,23,209,37,21,65,063,46,26,13,152,37,7*71
$GAGSV,3,3,09,27,15,083,36,7*45
$GBGSV,3,1,09,05,09,110,,08,21,038,34,13,27,065,37,14,19,299,33,1*79
$GBGSV,3,2,09,21,17,250,36,26,22,289,39,27,05,029,38,29,43,146,42,1*7D
$GBGSV,3,3,09,30,42,069,42,1*43
$GIGSV,1,1,02,02,19,103,32,06,25,135,36,1*75
$GPGGA,080020.00,4825.1044784,N,00428.4647244,W,4,17,0.4,89.919,M,51.639,M,1.0,4095*60
$GPRMC,080020.00,A,4825.1044784,N,00428.4647244,W,0.0,0.0,140619,1.4,W,D*38
$GNGSA,A,3,12,25,06,32,24,19,29,14,02,31,,,0.9,0.4,0.8,1*37
$GNGSA,A,3,66,67,85,68,75,77,86,,,,,,0.9,0.4,0.8,2*39
$GPGSV,3,1,11,02,18,097,40,06,16,058,39,12,67,053,47,14,36,304,43,1*66
$GPGSV,3,2,11,19,10,036,37,22,02,334,,24,39,123,45,25,67,265,49,1*6C
$GPGSV,3,3,11,29,27,185,44,31,15,298,41,32,47,280,47,1*5D
$GSGSV,2,1,07,01,33,195,,04,25,136,42,05,29,147,,06,33,195,,1*69
$GSGSV,2,2,07,07,28,143,,08,11,114,,17,34,167,43,1*51
$GLGSV,3,1,09,66,18,228,37,67,34,284,44,68,15,339,40,75,23,086,42,1*72
$GLGSV,3,2,09,76,61,053,45,77,38,298,40,85,34,042,43,86,44,119,44,1*71
$GLGSV,3,3,09,87,06,167,36,1*4D
$GQGSV,1,1,00,1*65
$GAGSV,3,1,09,01,54,282,45,04,37,273,43,09,14,325,39,13,34,101,42,7*71
$GAGSV,3,2,09,15,22,044,39,19,23,209,36,21,65,063,46,26,13,152,36,7*70
$GAGSV,3,3,09,27,14,083,36,7*44
$GBGSV,3,1,09,05,09,110,,08,21,038,34,13,27,065,37,14,19,299,33,1*79
$GBGSV,3,2,09,21,17,250,36,26,22,289,40,27,05,029,37,29,43,146,42,1*7C
$GBGSV,3,3,09,30,41,069,42,1*40
$GIGSV,1,1,02,02,19,103,33,06,25,135,36,1*74
$GPGGA,080021.00,4825.1044808,N,00428.4647245,W,4,17,0.4,89.922,M,51.639,M,1.0,4095*63
$GPRMC,080021.00,A,4825.1044808,N,00428.4647245,W,0.0,0.0,140619,1.4,W,D*33
$GNGSA,A,3,12,25,06,32,24,19,29,14,02,31,,,0.9,0.4,0.8,1*37
$GNGSA,A,3,66,67,85,68,75,77,86,,,,,,0.9,0.4,0.8,2*39
$GPGSV,3,1,11,02,18,097,40,06,16,058,39,12,67,053,47,14,36,304,43,1*66
$GPGSV,3,2,11,19,10,036,37,22,02,334,,24,39,123,45,25,67,265,48,1*6D
$GPGSV,3,3,11,29,27,185,44,31,15,298,41,32,47,280,47,1*5D
$GSGSV,2,1,07,01,33,195,,04,25,136,42,05,29,147,,06,33,195,,1*69
$GSGSV,2,2,07,07,28,143,,08,11,114,,17,34,167,43,1*51
$GLGSV,3,1,09,66,18,228,37,67,34,284,44,68,15,339,39,75,23,086,42,1*7C
$GLGSV,3,2,09,76,61,053,44,77,38,298,40,85,34,042,43,86,44,119,44,1*70
$GLGSV,3,3,09,87,06,167,36,1*4D
$GQGSV,1,1,00,1*65
$GAGSV,3,1,09,01,54,282,45,04,37,273,43,09,14,325,39,13,34,101,42,7*71
$GAGSV,3,2,09,15,22,044,40,19,23,209,36,21,65,063,46,26,13,152,36,7*7E
$GAGSV,3,3,09,27,14,083,36,7*44
$GBGSV,3,1,09,05,09,110,,08,21,038,33,13,27,065,37,14,19,299,33,1*7E
$GBGSV,3,2,09,21,17,250,37,26,22,289,40,27,05,029,37,29,43,146,42,1*7D
$GBGSV,3,3,09,30,41,069,42,1*40
$GIGSV,1,1,02,02,19,103,32,06,25,135,35,1*76
$GPGGA,080023.00,4825.1044780,N,00428.4647257,W,4,16,0.4,89.921,M,51.639,M,2.0,4095*6C
$GPRMC,080023.00,A,4825.1044780,N,00428.4647257,W,0.0,0.0,140619,1.4,W,D*3D
$GNGSA,A,3,12,25,06,32,24,29,14,02,31,,,,0.9,0.4,0.8,1*3F
$GNGSA,A,3,66,67,85,68,75,77,86,,,,,,0.9,0.4,0.8,2*39
$GPGSV,3,1,11,02,18,097,40,06,16,058,39,12,67,053,47,14,36,304,43,1*66
$GPGSV,3,2,11,19,10,036,37,22,02,333,,24,39,123,45,25,67,265,49,1*6B
$GPGSV,3,3,11,29,27,185,45,31,15,298,41,32,47,280,47,1*5C
$GSGSV,2,1,07,01,33,195,,04,25,136,42,05,29,147,,06,33,195,,1*69
$GSGSV,2,2,07,07,28,143,,08,11,114,,17,34,167,43,1*51
$GLGSV,3,1,09,66,18,227,38,67,34,284,44,68,15,339,40,75,23,086,42,1*72
$GLGSV,3,2,09,76,61,053,44,77,38,298,40,85,34,042,43,86,44,119,44,1*70
$GLGSV,3,3,09,87,06,167,36,1*4D
$GQGSV,1,1,00,1*65
$GAGSV,3,1,09,01,54,282,45,04,37,273,43,09,14,325,38,13,34,101,43,7*71
$GAGSV,3,2,09,15,22,044,39,19,23,209,36,21,65,063,46,26,13,152,36,7*70
$GAGSV,3,3,09,27,14,083,37,7*45
$GBGSV,3,1,09,05,09,110,,08,21,038,34,13,27,065,37,14,19,299,33,1*79
$GBGSV,3,2,09,21,17,250,37,26,22,289,39,27,05,029,36,29,43,146,43,1*73
$GBGSV,3,3,09,30,41,068,42,1*41
$GIGSV,1,1,02,02,19,103,32,06,25,135,35,1*76
$GPGGA,080024.00,4825.1044786,N,00428.4647250,W,4,16,0.4,89.928,M,51.639,M,1.0,4095*60
$GPRMC,080024.00,A,4825.1044786,N,00428.4647250,W,0.0,0.0,140619,1.4,W,D*3B
$GNGSA,A,3,12,25,06,32,24,29,14,02,31,,,,0.9,0.4,0.8,1*3F
$GNGSA,A,3,66,67,85,68,75,77,86,,,,,,0.9,0.4,0.8,2*39
$GPGSV,3,1,11,02,18,097,41,06,16,058,39,12,67,053,47,14,36,304,43,1*67
$GPGSV,3,2,11,19,10,036,37,22,02,333,,24,39,123,44,25,67,265,49,1*6A
$GPGSV,3,3,11,29,27,185,45,31,15,298,40,32,47,280,47,1*5D
$GSGSV,2,1,07,01,33,195,,04,25,136,42,05,29,147,,06,33,195,,1*69
$GSGSV,2,2,07,07,28,143,,08,11,114,,17,34,167,44,1*56
$GLGSV,3,1,09,66,18,227,37,67,34,284,44,68,15,339,40,75,23,086,41,1*7E
$GLGSV,3,2,09,76,61,053,44,77,38,298,40,85,34,042,43,86,44,119,43,1*77
$GLGSV,3,3,09,87,06,167,36,1*4D
$GQGSV,1,1,00,1*65
$GAGSV,3,1,09,01,54,282,45,04,37,273,43,09,14,325,39,13,34,101,42,7*71
$GAGSV,3,2,09,15,22,044,38,19,23,209,37,21,65,063,46,26,13,152,36,7*70
$GAGSV,3,3,09,27,14,083,37,7*45
$GBGSV,3,1,09,05,09,110,,08,21,038,34,13,27,065,37,14,19,299,33,1*79
$GBGSV,3,2,09,21,17,250,37,26,22,289,40,27,05,029,37,29,43,146,43,1*7C
$GBGSV,3,3,09,30,41,068,42,1*41
$GIGSV,1,1,02,02,19,103,32,06,25,135,35,1*76
$GPGGA,080025.00,4825.1044799,N,00428.4647255,W,4,16,0.4,89.921,M,51.639,M,1.0,4095*63
$GPRMC,080025.00,A,4825.1044799,N,00428.4647255,W,0.0,0.0,140619,1.4,W,D*31
$GNGSA,A,3,12,25,06,32,24,29,14,02,31,,,,0.9,0.4,0.8,1*3F
$GNGSA,A,3,66,67,85,68,75,77,86,,,,,,0.9,0.4,0.8,2*39
$GPGSV,3,1,11,02,18,097,40,06,16,058,39,12,67,053,47,14,36,304,43,1*66
$GPGSV,3,2,11,19,10,036,37,22,02,333,,24,39,123,44,25,67,265,48,1*6B
$GPGSV,3,3,11,29,27,185,45,31,15,298,40,32,47,280,46,1*5C
$GSGSV,2,1,07,01,33,195,,04,25,136,41,05,29,147,,06,33,195,,1*6A
$GSGSV,2,2,07,07,28,143,,08,11,114,,17,34,167,43,1*51
$GLGSV,3,1,09,66,18,227,37,67,34,284,44,68,15,339,40,75,23,086,41,1*7E
$GLGSV,3,2,09,76,61,053,44,77,38,298,40,85,34,042,42,86,44,119,44,1*71
$GLGSV,3,3,09,87,06,167,36,1*4D
$GQGSV,1,1,00,1*65
$GAGSV,3,1,09,01,54,282,45,04,37,273,43,09,14,325,39,13,34,101,43,7*70
$GAGSV,3,2,09,15,22,044,38,19,23,209,37,21,65,063,46,26,13,152,36,7*70
$GAGSV,3,3,09,27,14,083,36,7*44
$GBGSV,3,1,09,05,09,110,,08,21,038,34,13,27,065,37,14,19,299,33,1*79
$GBGSV,3,2,09,21,17,250,37,26,22,289,40,27,05,029,36,29,43,146,42,1*7C
$GBGSV,3,3,09,30,41,068,42,1*41
$GIGSV,1,1,02,02,19,103,32,06,25,135,35,1*76
$GPGGA,080027.00,4825.1044793,N,00428.4647236,W,4,16,0.4,89.926,M,51.639,M,1.0,4095*69
$GPRMC,080027.00,A,4825.1044793,N,00428.4647236,W,0.0,0.0,140619,1.4,W,D*3C
$GNGSA,A,3,12,25,06,32,24,29,14,02,31,,,,0.9,0.4,0.8,1*3F
$GNGSA,A,3,66,67,85,68,75,77,86,,,,,,0.9,0.4,0.8,2*39
$GPGSV,3,1,11,02,18,097,41,06,16,058,39,12,67,053,47,14,36,303,43,1*60
$GPGSV,3,2,11,19,10,036,37,22,02,333,,24,39,123,45,25,67,265,49,1*6B
$GPGSV,3,3,11,29,27,185,45,31,15,298,40,32,47,280,47,1*5D
$GSGSV,2,1,07,01,33,195,,04,25,136,42,05,29,147,,06,33,195,,1*69
$GSGSV,2,2,07,07,28,143,,08,11,114,,17,34,167,43,1*51
$GLGSV,3,1,09,66,18,227,37,67,34,284,44,68,15,339,40,75,23,086,41,1*7E
$GLGSV,3,2,09,76,61,053,44,77,38,298,40,85,34,042,43,86,44,119,43,1*77
$GLGSV,3,3,09,87,06,167,37,1*4C
$GQGSV,1,1,00,1*65
$GAGSV,3,1,09,01,54,282,46,04,37,273,43,09,14,325,39,13,34,101,42,7*72
$GAGSV,3,2,09,15,22,044,38,19,23,209,38,21,65,063,46,26,13,152,36,7*7F
$GAGSV,3,3,09,27,14,083,36,7*44
$GBGSV,3,1,09,05,09,110,,08,21,038,33,13,27,065,37,14,19,299,34,1*79
$GBGSV,3,2,09,21,17,250,37,26,22,289,39,27,05,029,36,29,43,146,43,1*73
$GBGSV,3,3,09,30,41,068,43,1*40
$GIGSV,1,1,02,02,19,103,32,06,25,135,36,1*75
$GPGGA,080028.00,4825.1044774,N,00428.4647240,W,4,16,0.4,89.927,M,51.639,M,1.0,4095*6F
$GPRMC,080028.00,A,4825.1044774,N,00428.4647240,W,0.0,0.0,140619,1.4,W,D*3B
$GNGSA,A,3,12,25,06,32,24,29,14,02,31,,,,0.9,0.4,0.8,1*3F
$GNGSA,A,3,66,67,85,68,75,77,86,,,,,,0.9,0.4,0.8,2*39
$GPGSV,3,1,11,02,18,097,41,06,16,058,40,12,67,053,47,14,36,303,43,1*6E
$GPGSV,3,2,11,19,10,036,37,22,02,333,,24,39,123,44,25,67,265,49,1*6A
$GPGSV,3,3,11,29,27,185,45,31,15,298,40,32,47,280,46,1*5C
$GSGSV,2,1,07,01,33,195,,04,25,136,42,05,29,147,,06,33,195,,1*69
$GSGSV,2,2,07,07,28,143,,08,11,114,,17,34,167,43,1*51
$GLGSV,3,1,09,66,18,227,37,67,34,284,44,68,15,339,40,75,23,086,42,1*7D
$GLGSV,3,2,09,76,61,053,44,77,38,298,40,85,34,042,43,86,44,119,43,1*77
$GLGSV,3,3,09,87,06,167,36,1*4D
$GQGSV,1,1,00,1*65
$GAGSV,3,1,09,01,54,282,46,04,37,273,43,09,14,325,39,13,34,101,42,7*72
$GAGSV,3,2,09,15,22,044,38,19,23,209,37,21,65,063,46,26,13,152,36,7*70
$GAGSV,3,3,09,27,14,083,37,7*45
$GBGSV,3,1,09,05,09,110,,08,21,038,33,13,27,065,37,14,19,299,34,1*79
$GBGSV,3,2,09,21,17,250,37,26,22,289,39,27,05,029,37,29,43,146,42,1*73
$GBGSV,3,3,09,30,41,068,43,1*40
$GIGSV,1,1,02,02,19,103,32,06,25,135,36,1*75
$GPGGA,080029.00,4825.1044771,N,00428.4647248,W,4,16,0.4,89.925,M,51.639,M,1.0,4095*61
$GPRMC,080029.00,A,4825.1044771,N,00428.4647248,W,0.0,0.0,140619,1.4,W,D*37
$GNGSA,A,3,12,25,06,32,24,29,14,02,31,,,,0.9,0.4,0.8,1*3F
$GNGSA,A,3,66,67,85,68,75,77,86,,,,,,0.9,0.4,0.8,2*39
$GPGSV,3,1,11,02,18,097,41,06,16,058,39,12,67,053,47,14,36,303,43,1*60
$GPGSV,3,2,11,19,10,036,36,22,02,333,,24,39,123,45,25,67,265,49,1*6A
$GPGSV,3,3,11,29,27,185,45,31,15,298,40,32,47,280,46,1*5C
$GSGSV,2,1,07,01,33,195,,04,25,136,42,05,29,147,,06,33,195,,1*69
$GSGSV,2,2,07,07,28,143,,08,11,114,,17,34,167,43,1*51
$GLGSV,3,1,09,66,18,227,37,67,34,284,44,68,15,339,39,75,23,086,41,1*70
$GLGSV,3,2,09,76,61,053,45,77,39,298,40,85,34,042,43,86,44,119,43,1*77
$GLGSV,3,3,09,87,06,167,37,1*4C
$GQGSV,1,1,00,1*65
$GAGSV,3,1,09,01,54,282,45,04,37,273,43,09,14,325,39,13,34,101,42,7*71
$GAGSV,3,2,09,15,22,044,38,19,23,209,37,21,65,063,46,26,13,152,36,7*70
$GAGSV,3,3,09,27,14,083,37,7*45
$GBGSV,3,1,09,05,09,110,,08,21,038,33,13,27,065,38,14,19,299,34,1*76
$GBGSV,3,2,09,21,17,250,37,26,22,289,39,27,05,029,36,29,43,146,42,1*72
$GBGSV,3,3,09,30,41,068,43,1*40
$GIGSV,1,1,02,02,19,103,32,06,25,135,36,1*75
$GPGGA,080030.00,4825.1044786,N,00428.4647239,W,4,16,0.4,89.922,M,51.639,M,1.0,4095*60
$GPRMC,080030.00,A,4825.1044786,N,00428.4647239,W,0.0,0.0,140619,1.4,W,D*31
$GNGSA,A,3,12,25,06,32,24,29,14,02,31,,,,0.9,0.4,0.8,1*3F
$GNGSA,A,3,66,67,85,68,75,77,86,,,,,,0.9,0.4,0.8,2*39
$GPGSV,3,1,11,02,18,097,41,06,16,058,39,12,67,053,47,14,36,303,43,1*60
$GPGSV,3,2,11,19,10,036,37,22,02,333,,24,39,123,45,25,67,265,50,1*63
$GPGSV,3,3,11,29,27,185,45,31,15,299,41,32,47,280,47,1*5D
$GSGSV,2,1,07,01,33,195,,04,25,136,42,05,29,147,,06,33,195,,1*69
$GSGSV,2,2,07,07,28,143,,08,11,114,,17,34,167,43,1*51
$GLGSV,3,1,09,66,18,227,37,67,34,284,44,68,15,339,39,75,23,086,41,1*70
$GLGSV,3,2,09,76,61,053,45,77,39,298,41,85,34,042,43,86,44,119,44,1*71
$GLGSV,3,3,09,87,06,167,37,1*4C
$GQGSV,1,1,00,1*65
$GAGSV,3,1,09,01,54,282,45,04,37,273,43,09,14,325,39,13,34,101,42,7*71
$GAGSV,3,2,09,15,22,044,38,19,23,209,37,21,65,063,46,26,13,152,36,7*70
$GAGSV,3,3,09,27,14,083,37,7*45
$GBGSV,3,1,09,05,09,110,,08,21,038,33,13,27,065,37,14,19,299,34,1*79
$GBGSV,3,2,09,21,17,250,37,26,22,289,39,27,05,029,36,29,43,146,42,1*72
$GBGSV,3,3,09,30,41,068,42,1*41
$GIGSV,1,1,02,02,19,103,33,06,25,135,36,1*74
$GPGGA,080031.00,4825.1044792,N,00428.4647229,W,4,16,0.4,89.917,M,51.639,M,1.0,4095*63
$GPRMC,080031.00,A,4825.1044792,N,00428.4647229,W,0.0,0.0,140619,1.4,W,D*34
$GNGSA,A,3,12,25,06,32,24,29,14,02,31,,,,0.9,0.4,0.8,1*3F
$GNGSA,A,3,66,67,85,68,75,77,86,,,,,,0.9,0.4,0.8,2*39
$GPGSV,3,1,11,02,18,097,41,06,16,058,38,12,67,053,47,14,36,303,43,1*61
$GPGSV,3,2,11,19,10,036,37,22,02,333,,24,39,123,44,25,67,265,49,1*6A
$GPGSV,3,3,11,29,27,185,44,31,15,299,41,32,47,280,47,1*5C
$GSGSV,2,1,07,01,33,195,,04,25,136,42,05,29,147,,06,33,195,,1*69
$GSGSV,2,2,07,07,28,143,,08,11,114,,17,34,167,42,1*50
$GLGSV,3,1,09,66,18,227,37,67,34,284,44,68,15,339,39,75,23,086,41,1*70
$GLGSV,3,2,09,76,61,053,44,77,39,298,40,85,33,042,43,86,44,119,44,1*76
$GLGSV,3,3,09,87,06,167,36,1*4D
$GQGSV,1,1,00,1*65
$GAGSV,3,1,09,01,54,282,45,04,37,273,43,09,14,325,38,13,34,101,42,7*70
$GAGSV,3,2,09,15,22,044,38,19,23,209,37,21,65,063,46,26,13,152,36,7*70
$GAGSV,3,3,09,27,14,083,36,7*44
$GBGSV,3,1,09,05,09,110,,08,21,038,33,13,27,065,37,14,19,299,34,1*79
$GBGSV,3,2,09,21,17,250,36,26,22,289,39,27,05,029,36,29,43,146,42,1*73
$GBGSV,3,3,09,30,41,068,42,1*41
$GIGSV,1,1,02,02,19,103,33,06,25,135,36,1*74
$GPGGA,080032.00,4825.1044794,N,00428.4647229,W,4,16,0.4,89.916,M,51.639,M,2.0,4095*64
$GPRMC,080032.00,A,4825.1044794,N,00428.4647229,W,0.0,0.0,140619,1.4,W,D*31
$GNGSA,A,3,12,25,06,32,24,29,14,02,31,,,,0.9,0.4,0.8,1*3F
$GNGSA,A,3,66,67,85,68,75,77,86,,,,,,0.9,0.4,0.8,2*39
$GPGSV,3,1,11,02,18,097,41,06,16,058,38,12,67,053,47,14,36,303,43,1*61
$GPGSV,3,2,11,19,10,036,37,22,02,333,,24,39,123,45,25,67,265,48,1*6A
$GPGSV,3,3,11,29,27,185,45,31,15,299,41,32,47,280,47,1*5D
$GSGSV,2,1,07,01,33,195,,04,25,136,42,05,29,147,,06,33,195,,1*69
$GSGSV,2,2,07,07,28,143,,08,11,114,,17,34,167,43,1*51
$GLGSV,3,1,09,66,18,227,37,67,34,284,43,68,15,339,39,75,23,086,41,1*77
$GLGSV,3,2,09,76,61,053,45,77,39,298,40,85,33,042,43,86,44,119,44,1*77
$GLGSV,3,3,09,87,06,167,36,1*4D
$GQGSV,1,1,00,1*65
$GAGSV,3,1,09,01,54,282,45,04,37,273,43,09,14,325,38,13,34,101,42,7*70
$GAGSV,3,2,09,15,22,044,38,19,23,209,37,21,65,063,46,26,13,152,36,7*70
$GAGSV,3,3,09,27,14,083,37,7*45
$GBGSV,3,1,09,05,09,110,,08,21,038,33,13,27,065,37,14,19,299,34,1*79
$GBGSV,3,2,09,21,17,250,36,26,22,289,39,27,05,029,36,29,43,146,42,1*73
$GBGSV,3,3,09,30,41,068,43,1*40
$GIGSV,1,1,02,02,19,103,32,06,25,135,36,1*75
$GPGGA,080033.00,4825.1044777,N,00428.4647241,W,4,16,0.4,89.920,M,51.639,M,1.0,4095*60
$GPRMC,080033.00,A,4825.1044777,N,00428.4647241,W,0.0,0.0,140619,1.4,W,D*33
$GNGSA,A,3,12,25,06,32,24,29,14,02,31,,,,0.9,0.4,0.8,1*3F
$GNGSA,A,3,66,67,85,68,75,77,86,,,,,,0.9,0.4,0.8,2*39
$GPGSV,3,1,11,02,18,097,41,06,16,058,40,12,67,053,47,14,36,303,43,1*6E
$GPGSV,3,2,11,19,10,036,38,22,02,333,,24,39,123,45,25,67,265,49,1*64
$GPGSV,3,3,11,29,27,185,45,31,15,299,42,32,47,280,47,1*5E
$GSGSV,2,1,07,01,33,195,,04,25,136,42,05,29,147,,06,33,195,,1*69
$GSGSV,2,2,07,07,28,143,,08,11,114,,17,34,167,43,1*51
$GLGSV,3,1,09,66,18,227,37,67,34,284,42,68,15,339,39,75,23,086,42,1*75
$GLGSV,3,2,09,76,61,053,45,77,39,298,40,85,33,041,43,86,44,119,43,1*73
$GLGSV,3,3,09,87,06,167,36,1*4D
$GQGSV,1,1,00,1*65
$GAGSV,3,1,09,01,54,282,45,04,37,273,43,09,14,325,38,13,34,101,42,7*70
$GAGSV,3,2,09,15,22,044,38,19,23,209,37,21,65,063,46,26,13,152,36,7*70
$GAGSV,3,3,09,27,14,083,37,7*45
$GBGSV,3,1,09,05,09,110,,08,21,038,33,13,27,065,37,14,19,299,34,1*79
$GBGSV,3,2,09,21,17,250,36,26,22,289,40,27,05,029,36,29,43,146,42,1*7D
$GBGSV,3,3,09,30,41,068,42,1*41
$GIGSV,1,1,02,02,19,103,32,06,25,135,36,1*75
$GPGGA,080035.00,4825.1044781,N,00428.4647246,W,4,16,0.4,89.922,M,51.639,M,1.0,4095*6A
$GPRMC,080035.00,A,4825.1044781,N,00428.4647246,W,0.0,0.0,140619,1.4,W,D*3B
$GNGSA,A,3,12,25,06,32,24,29,14,02,31,,,,0.9,0.4,0.8,1*3F
$GNGSA,A,3,66,67,85,68,75,77,86,,,,,,0.9,0.4,0.8,2*39
$GPGSV,3,1,11,02,18,097,41,06,16,058,39,12,67,053,47,14,36,303,43,1*60
$GPGSV,3,2,11,19,10,036,38,22,02,333,,24,39,123,45,25,67,265,49,1*64
$GPGSV,3,3,11,29,27,185,44,31,15,299,40,32,47,280,47,1*5D
$GSGSV,2,1,07,01,33,195,,04,25,136,42,05,29,147,,06,33,195,,1*69
$GSGSV,2,2,07,07,28,143,,08,11,114,,17,34,167,43,1*51
$GLGSV,3,1,09,66,18,227,37,67,34,284,43,68,15,339,38,75,23,086,41,1*76
$GLGSV,3,2,09,76,61,053,45,77,39,298,40,85,33,041,43,86,44,119,43,1*73
$GLGSV,3,3,09,87,06,167,38,1*43
$GQGSV,1,1,00,1*65
$GAGSV,3,1,09,01,54,282,45,04,37,273,43,09,14,325,38,13,34,101,42,7*70
$GAGSV,3,2,09,15,22,044,39,19,23,209,37,21,65,063,46,26,13,152,36,7*71
$GAGSV,3,3,09,27,14,083,36,7*44
$GBGSV,3,1,09,05,09,110,,08,21,038,33,13,27,065,37,14,19,299,34,1*79
$GBGSV,3,2,09,21,17,250,37,26,22,289,39,27,05,029,36,29,43,146,43,1*73
$GBGSV,3,3,09,30,41,068,43,1*40
$GIGSV,1,1,02,02,19,103,32,06,25,135,36,1*75
$GPGGA,080036.00,4825.1044776,N,00428.4647243,W,4,16,0.4,89.920,M,51.639,M,1.0,4095*66
$GPRMC,080036.00,A,4825.1044776,N,00428.4647243,W,0.0,0.0,140619,1.4,W,D*35
$GNGSA,A,3,12,25,06,32,24,29,14,02,31,,,,0.9,0.4,0.8,1*3F
$GNGSA,A,3,66,67,85,68,75,77,86,,,,,,0.9,0.4,0.8,2*39
$GPGSV,3,1,11,02,18,097,41,06,16,058,39,12,67,053,47,14,36,303,43,1*60
$GPGSV,3,2,11,19,10,036,38,22,02,333,,24,39,123,45,25,67,265,49,1*64
$GPGSV,3,3,11,29,27,185,44,31,15,299,41,32,47,280,47,1*5C
$GSGSV,2,1,07,01,33,195,,04,25,136,41,05,29,147,,06,33,195,,1*6A
$GSGSV,2,2,07,07,28,143,,08,11,114,,17,34,167,43,1*51
$GLGSV,3,1,09,66,18,227,37,67,34,284,43,68,15,339,39,75,23,086,41,1*77
$GLGSV,3,2,09,76,61,053,44,77,39,298,40,85,33,041,42,86,44,119,43,1*73
$GLGSV,3,3,09,87,06,167,37,1*4C
$GQGSV,1,1,00,1*65
$GAGSV,3,1,09,01,54,282,45,04,37,273,44,09,14,325,39,13,34,101,42,7*76
$GAGSV,3,2,09,15,22,044,39,19,23,209,37,21,65,063,46,26,13,152,36,7*71
$GAGSV,3,3,09,27,14,083,36,7*44
$GBGSV,3,1,09,05,09,110,,08,21,038,33,13,27,065,37,14,19,299,34,1*79
$GBGSV,3,2,09,21,17,250,37,26,22,289,39,27,05,029,36,29,43,146,42,1*72
$GBGSV,3,3,09,30,41,068,43,1*40
$GIGSV,1,1,02,02,19,103,32,06,25,135,36,1*75
$GPGGA,080037.00,4825.1044782,N,00428.4647248,W,4,16,0.4,89.918,M,51.639,M,1.0,4095*6C
$GPRMC,080037.00,A,4825.1044782,N,00428.4647248,W,0.0,0.0,140619,1.4,W,D*34
$GNGSA,A,3,12,25,06,32,24,29,14,02,31,,,,0.9,0.4,0.8,1*3F
$GNGSA,A,3,66,67,85,68,75,77,86,,,,,,0.9,0.4,0.8,2*39
$GPGSV,3,1,11,02,18,097,41,06,16,058,40,12,67,053,47,14,36,303,43,1*6E
$GPGSV,3,2,11,19,10,036,37,22,02,333,,24,39,123,44,25,67,265,49,1*6A
$GPGSV,3,3,11,29,27,185,45,31,15,299,41,32,47,280,47,1*5D
$GSGSV,2,1,07,01,33,195,,04,25,136,41,05,29,147,,06,33,195,,1*6A
$GSGSV,2,2,07,07,28,143,,08,11,114,,17,34,167,44,1*56
$GLGSV,3,1,09,66,18,227,37,67,34,284,43,68,15,339,38,75,23,086,41,1*76
$GLGSV,3,2,09,76,61,053,45,77,39,298,40,85,33,041,43,86,44,119,43,1*73
$GLGSV,3,3,09,87,06,167,36,1*4D
$GQGSV,1,1,00,1*65
$GAGSV,3,1,09,01,54,282,46,04,37,273,44,09,14,325,39,13,34,101,42,7*75
$GAGSV,3,2,09,15,22,044,40,19,23,209,37,21,65,063,46,26,13,152,36,7*7F
$GAGSV,3,3,09,27,14,083,36,7*44
$GBGSV,3,1,09,05,09,110,,08,21,038,33,13,27,065,37,14,19,299,34,1*79
$GBGSV,3,2,09,21,17,250,37,26,22,289,39,27,05,029,36,29,43,146,42,1*72
$GBGSV,3,3,09,30,41,068,43,1*40
$GIGSV,1,1,02,02,19,103,32,06,25,135,36,1*75
$GPGGA,080039.00,4825.1044794,N,00428.4647256,W,4,16,0.4,89.916,M,51.639,M,1.0,4095*64
$GPRMC,080039.00,A,4825.1044794,N,00428.4647256,W,0.0,0.0,140619,1.4,W,D*32
$GNGSA,A,3,12,25,06,32,24,29,14,02,31,,,,0.9,0.4,0.8,1*3F
$GNGSA,A,3,66,67,85,68,75,77,86,,,,,,0.9,0.4,0.8,2*39
$GPGSV,3,1,11,02,18,097,42,06,16,058,39,12,67,053,47,14,36,303,43,1*63
$GPGSV,3,2,11,19,10,036,38,22,02,333,,24,39,123,44,25,67,265,49,1*65
$GPGSV,3,3,11,29,27,185,45,31,15,299,41,32,47,280,47,1*5D
$GSGSV,2,1,07,01,33,195,,04,25,136,41,05,29,147,,06,33,195,,1*6A
$GSGSV,2,2,07,07,28,143,,08,11,114,,17,34,167,43,1*51
$GLGSV,3,1,09,66,18,227,37,67,34,284,44,68,15,339,38,75,23,086,41,1*71
$GLGSV,3,2,09,76,61,053,44,77,39,298,40,85,33,041,43,86,44,119,43,1*72
$GLGSV,3,3,09,87,06,167,37,1*4C
$GQGSV,1,1,00,1*65
$GAGSV,3,1,09,01,55,282,46,04,37,273,44,09,14,325,39,13,34,101,42,7*74
$GAGSV,3,2,09,15,22,044,38,19,23,209,36,21,65,063,46,26,13,152,36,7*71
$GAGSV,3,3,09,27,14,083,36,7*44
$GBGSV,3,1,09,05,09,110,,08,21,038,34,13,27,065,37,14,19,299,34,1*7E
$GBGSV,3,2,09,21,17,250,36,26,22,289,38,27,05,029,36,29,43,146,42,1*72
$GBGSV,3,3,09,30,41,068,43,1*40
$GIGSV,1,1,02,02,19,103,31,06,25,135,36,1*76
$GPGGA,080040.00,4825.1044777,N,00428.4647253,W,4,16,0.4,89.924,M,51.639,M,1.0,4095*63
$GPRMC,080040.00,A,4825.1044777,N,00428.4647253,W,0.0,0.0,140619,1.4,W,D*34
$GNGSA,A,3,12,25,06,32,24,29,14,02,31,,,,0.9,0.4,0.8,1*3F
$GNGSA,A,3,66,67,85,68,75,77,86,,,,,,0.9,0.4,0.8,2*39
$GPGSV,3,1,11,02,18,097,42,06,16,058,39,12,67,053,48,14,36,303,44,1*6B
$GPGSV,3,2,11,19,10,036,37,22,02,333,,24,39,123,45,25,67,266,49,1*68
$GPGSV,3,3,11,29,28,185,45,31,15,299,41,32,47,280,47,1*52
$GSGSV,2,1,07,01,33,195,,04,25,136,42,05,29,147,,06,33,195,,1*69
$GSGSV,2,2,07,07,28,143,,08,11,114,,17,34,167,44,1*56
$GLGSV,3,1,09,66,18,227,37,67,34,284,44,68,15,339,39,75,23,086,41,1*70
$GLGSV,3,2,09,76,61,053,45,77,39,298,40,85,33,041,43,86,44,119,43,1*73
$GLGSV,3,3,09,87,06,167,36,1*4D
$GQGSV,1,1,00,1*65
$GAGSV,3,1,09,01,55,282,46,04,37,273,44,09,14,325,39,13,34,101,43,7*75
$GAGSV,3,2,09,15,22,044,38,19,23,209,37,21,65,063,46,26,13,152,36,7*70
$GAGSV,3,3,09,27,14,083,37,7*45
$GBGSV,3,1,09,05,09,110,,08,21,038,34,13,27,065,37,14,19,299,34,1*7E
$GBGSV,3,2,09,21,17,250,36,26,22,289,39,27,04,029,35,29,43,146,42,1*71
$GBGSV,3,3,09,30,41,068,42,1*41
$GIGSV,1,1,02,02,19,103,32,06,25,135,36,1*75
$GPGGA,080041.00,4825.1044769,N,00428.4647249,W,4,16,0.4,89.921,M,51.639,M,1.0,4095*63
$GPRMC,080041.00,A,4825.1044769,N,00428.4647249,W,0.0,0.0,140619,1.4,W,D*31
$GNGSA,A,3,12,25,06,32,24,29,14,02,31,,,,0.9,0.4,0.8,1*3F
$GNGSA,A,3,66,67,85,68,75,77,86,,,,,,0.9,0.4,0.8,2*39
$GPGSV,3,1,11,02,18,097,41,06,16,058,39,12,67,053,47,14,36,303,43,1*60
$GPGSV,3,2,11,19,10,036,38,22,02,333,,24,39,123,45,25,67,266,49,1*67
$GPGSV,3,3,11,29,28,185,44,31,15,299,42,32,47,280,47,1*50
$GSGSV,2,1,07,01,33,195,,04,25,136,42,05,29,147,,06,33,195,,1*69
$GSGSV,2,2,07,07,28,143,,08,11,114,,17,34,167,43,1*51
$GLGSV,3,1,09,66,18,227,37,67,34,284,44,68,15,339,40,75,23,086,41,1*7E
$GLGSV,3,2,09,76,61,053,44,77,39,298,40,85,33,041,42,86,44,119,44,1*74
$GLGSV,3,3,09,87,06,167,37,1*4C
$GQGSV,1,1,00,1*65
$GAGSV,3,1,09,01,55,282,46,04,37,273,44,09,14,325,39,13,34,101,42,7*74
$GAGSV,3,2,09,15,22,044,38,19,23,209,37,21,65,063,46,26,13,152,36,7*70
$GAGSV,3,3,09,27,14,083,37,7*45
$GBGSV,3,1,09,05,09,110,,08,21,038,33,13,27,065,37,14,19,299,33,1*7E
$GBGSV,3,2,09,21,17,250,36,26,22,289,39,27,04,029,36,29,43,146,42,1*72
$GBGSV,3,3,09,30,41,068,42,1*41
$GIGSV,1,1,02,02,19,103,32,06,25,135,36,1*75
$GPGGA,080043.00,4825.1044781,N,00428.4647251,W,4,16,0.4,89.923,M,51.639,M,1.0,4095*6C
$GPRMC,080043.00,A,4825.1044781,N,00428.4647251,W,0.0,0.0,140619,1.4,W,D*3C
$GNGSA,A,3,12,25,06,32,24,29,14,02,31,,,,0.9,0.4,0.8,1*3F
$GNGSA,A,3,66,67,85,68,75,77,86,,,,,,0.9,0.4,0.8,2*39
$GPGSV,3,1,11,02,18,097,41,06,16,058,39,12,67,053,47,14,36,303,43,1*60
$GPGSV,3,2,11,19,10,036,38,22,02,333,,24,39,123,45,25,67,266,49,1*67
$GPGSV,3,3,11,29,28,185,45,31,15,299,41,32,47,279,47,1*54
$GSGSV,2,1,07,01,33,195,,04,25,136,41,05,29,147,,06,33,195,,1*6A
$GSGSV,2,2,07,07,28,143,,08,11,114,,17,34,167,43,1*51
$GLGSV,3,1,09,66,18,227,37,67,34,284,43,68,15,339,38,75,23,086,42,1*75
$GLGSV,3,2,09,76,61,053,44,77,39,298,39,85,33,041,43,86,44,119,43,1*7C
$GLGSV,3,3,09,87,06,167,37,1*4C
$GQGSV,1,1,00,1*65
$GAGSV,3,1,09,01,55,282,45,04,37,273,43,09,14,325,39,13,34,101,42,7*70
$GAGSV,3,2,09,15,22,044,39,19,23,209,36,21,65,063,45,26,13,152,36,7*73
$GAGSV,3,3,09,27,14,083,36,7*44
$GBGSV,3,1,09,05,09,110,,08,21,038,34,13,27,065,37,14,19,299,34,1*7E
$GBGSV,3,2,09,21,17,250,37,26,22,289,38,27,04,029,35,29,43,146,42,1*71
$GBGSV,3,3,09,30,41,068,42,1*41
$GIGSV,1,1,02,02,19,103,31,06,25,135,36,1*76
$GPGGA,080044.00,4825.1044790,N,00428.4647232,W,4,16,0.4,89.916,M,51.639,M,1.0,4095*68
$GPRMC,080044.00,A,4825.1044790,N,00428.4647232,W,0.0,0.0,140619,1.4,W,D*3E
$GNGSA,A,3,12,25,06,32,24,29,14,02,31,,,,0.9,0.4,0.8,1*3F
$GNGSA,A,3,66,67,85,68,75,77,86,,,,,,0.9,0.4,0.8,2*39
$GPGSV,3,1,11,02,18,097,41,06,16,058,40,12,67,053,47,14,36,303,43,1*6E
$GPGSV,3,2,11,19,10,036,38,22,02,333,,24,39,123,45,25,67,266,49,1*67
$GPGSV,3,3,11,29,28,185,45,31,15,299,41,32,47,279,47,1*54
$GSGSV,2,1,07,01,33,195,,04,25,136,41,05,29,147,,06,33,195,,1*6A
$GSGSV,2,2,07,07,28,143,,08,11,114,,17,34,167,44,1*56
$GLGSV,3,1,09,66,18,227,37,67,34,284,44,68,15,339,39,75,23,086,42,1*73
$GLGSV,3,2,09,76,61,053,44,77,39,298,40,85,33,041,43,86,44,119,43,1*72
$GLGSV,3,3,09,87,06,167,36,1*4D
$GQGSV,1,1,00,1*65
$GAGSV,3,1,09,01,55,282,45,04,37,273,43,09,14,325,40,13,34,101,42,7*7E
$GAGSV,3,2,09,15,22,044,38,19,23,209,37,21,65,063,45,26,13,152,36,7*73
$GAGSV,3,3,09,27,14,083,37,7*45
$GBGSV,3,1,09,05,09,110,,08,21,038,34,13,27,065,37,14,19,299,34,1*7E
$GBGSV,3,2,09,21,17,250,37,26,22,289,38,27,04,029,35,29,43,146,43,1*70
$GBGSV,3,3,09,30,41,068,42,1*41
$GIGSV,1,1,02,02,19,103,31,06,25,135,36,1*76
$GPGGA,080045.00,4825.1044794,N,00428.4647224,W,4,16,0.4,89.920,M,51.639,M,1.0,4095*6F
$GPRMC,080045.00,A,4825.1044794,N,00428.4647224,W,0.0,0.0,140619,1.4,W,D*3C
$GNGSA,A,3,12,25,06,32,24,29,14,02,31,,,,0.9,0.4,0.8,1*3F
$GNGSA,A,3,66,67,85,68,75,77,86,,,,,,0.9,0.4,0.8,2*39
$GPGSV,3,1,11,02,18,097,41,06,16,058,40,12,67,053,47,14,36,303,43,1*6E
$GPGSV,3,2,11,19,10,036,38,22,02,333,,24,39,123,45,25,67,266,48,1*66
$GPGSV,3,3,11,29,28,185,46,31,15,299,41,32,47,279,47,1*57
$GSGSV,2,1,07,01,33,195,,04,25,136,41,05,29,147,,06,33,195,,1*6A
$GSGSV,2,2,07,07,28,143,,08,11,114,,17,34,167,43,1*51
$GLGSV,3,1,09,66,18,227,37,67,34,284,44,68,15,339,39,75,23,086,41,1*70
$GLGSV,3,2,09,76,61,053,44,77,39,298,40,85,33,041,43,86,44,119,43,1*72
$GLGSV,3,3,09,87,06,167,36,1*4D
$GQGSV,1,1,00,1*65
$GAGSV,3,1,09,01,55,282,45,04,37,273,43,09,14,325,39,13,34,101,42,7*70
$GAGSV,3,2,09,15,22,044,38,19,23,209,36,21,65,063,46,26,13,152,36,7*71
$GAGSV,3,3,09,27,14,083,37,7*45
$GBGSV,3,1,09,05,09,110,,08,21,038,34,13,27,065,37,14,19,299,33,1*79
$GBGSV,3,2,09,21,17,250,37,26,22,289,38,27,04,029,36,29,43,146,43,1*73
$GBGSV,3,3,09,30,41,068,43,1*40
$GIGSV,1,1,02,02,19,103,31,06,25,135,35,1*75
$GPGGA,080047.00,4825.1044787,N,00428.4647247,W,4,16,0.4,89.924,M,51.639,M,1.0,4095*6E
$GPRMC,080047.00,A,4825.1044787,N,00428.4647247,W,0.0,0.0,140619,1.4,W,D*39
$GNGSA,A,3,12,25,06,32,24,29,14,02,31,,,,0.9,0.4,0.8,1*3F
$GNGSA,A,3,66,67,85,68,75,77,86,,,,,,0.9,0.4,0.8,2*39
$GPGSV,3,1,11,02,18,097,41,06,16,058,39,12,67,053,47,14,36,303,43,1*60
$GPGSV,3,2,11,19,10,036,37,22,02,333,,24,39,123,45,25,68,266,48,1*66
$GPGSV,3,3,11,29,28,185,44,31,15,299,41,32,47,279,46,1*54
$GSGSV,2,1,07,01,33,195,,04,25,136,42,05,29,147,,06,33,195,,1*69
$GSGSV,2,2,07,07,28,143,,08,11,114,,17,34,167,43,1*51
$GLGSV,3,1,09,66,18,227,37,67,34,284,44,68,15,339,39,75,23,086,41,1*70
$GLGSV,3,2,09,76,61,053,44,77,39,298,40,85,33,041,42,86,44,119,43,1*73
$GLGSV,3,3,09,87,06,167,37,1*4C
$GQGSV,1,1,00,1*65
$GAGSV,3,1,09,01,55,282,45,04,37,273,43,09,14,325,39,13,34,101,42,7*70
$GAGSV,3,2,09,15,22,044,38,19,23,209,37,21,65,063,46,26,13,152,36,7*70
$GAGSV,3,3,09,27,14,083,36,7*44
$GBGSV,3,1,09,05,09,110,,08,21,038,33,13,27,065,37,14,19,299,33,1*7E
$GBGSV,3,2,09,21,17,250,37,26,22,289,38,27,04,029,35,29,43,146,43,1*70
$GBGSV,3,3,09,30,41,068,42,1*41
$GIGSV,1,1,02,02,19,103,31,06,25,135,35,1*75
$GPGGA,080048.00,4825.1044780,N,00428.4647251,W,4,16,0.4,89.918,M,51.639,M,1.0,4095*6E
$GPRMC,080048.00,A,4825.1044780,N,00428.4647251,W,0.0,0.0,140619,1.4,W,D*36
$GNGSA,A,3,12,25,06,32,24,29,14,02,31,,,,0.9,0.4,0.8,1*3F
$GNGSA,A,3,66,67,85,68,75,77,86,,,,,,0.9,0.4,0.8,2*39
$GPGSV,3,1,11,02,18,097,41,06,16,058,38,12,67,053,47,14,36,303,44,1*66
$GPGSV,3,2,11,19,10,036,37,22,02,333,,24,39,123,44,25,68,266,49,1*66
$GPGSV,3,3,11,29,28,185,45,31,15,299,41,32,47,279,47,1*54
$GSGSV,2,1,07,01,33,195,,04,25,136,42,05,29,147,,06,33,195,,1*69
$GSGSV,2,2,07,07,28,143,,08,11,114,,17,34,167,43,1*51
$GLGSV,3,1,09,66,18,227,37,67,34,284,44,68,15,339,40,75,23,086,41,1*7E
$GLGSV,3,2,09,76,61,053,44,77,39,298,40,85,33,041,43,86,44,119,43,1*72
$GLGSV,3,3,09,87,06,167,36,1*4D
$GQGSV,1,1,00,1*65
$GAGSV,3,1,09,01,55,282,45,04,37,273,43,09,14,325,39,13,34,101,42,7*70
$GAGSV,3,2,09,15,22,044,39,19,23,209,36,21,65,063,46,26,13,152,36,7*70
$GAGSV,3,3,09,27,14,083,37,7*45
$GBGSV,3,1,09,05,09,110,,08,21,038,34,13,27,065,37,14,19,299,33,1*79
$GBGSV,3,2,09,21,17,250,37,26,22,289,38,27,04,029,35,29,43,146,43,1*70
$GBGSV,3,3,09,30,41,068,42,1*41
$GIGSV,1,1,02,02,19,103,30,06,25,135,36,1*77
$GPGGA,080049.00,4825.1044793,N,00428.4647242,W,4,16,0.4,89.918,M,51.639,M,1.0,4095*6F
$GPRMC,080049.00,A,4825.1044793,N,00428.4647242,W,0.0,0.0,140619,1.4,W,D*37
$GNGSA,A,3,12,25,06,32,24,29,14,02,31,,,,0.9,0.4,0.8,1*3F
$GNGSA,A,3,66,67,85,68,75,77,86,,,,,,0.9,0.4,0.8,2*39
$GPGSV,3,1,11,02,18,097,41,06,16,058,38,12,67,053,47,14,36,303,43,1*61
$GPGSV,3,2,11,19,10,036,36,22,02,333,,24,39,123,44,25,68,266,48,1*66
$GPGSV,3,3,11,29,28,185,45,31,15,299,41,32,47,279,47,1*54
$GSGSV,2,1,07,01,33,195,,04,25,136,41,05,29,147,,06,33,195,,1*6A
$GSGSV,2,2,07,07,28,143,,08,11,114,,17,34,167,43,1*51
$GLGSV,3,1,09,66,18,227,37,67,34,284,44,68,15,339,40,75,23,086,41,1*7E
$GLGSV,3,2,09,76,61,053,44,77,39,298,40,85,33,041,43,86,44,119,43,1*72
$GLGSV,3,3,09,87,06,167,36,1*4D
$GQGSV,1,1,00,1*65
$GAGSV,3,1,09,01,55,282,45,04,37,273,43,09,14,325,39,13,34,101,42,7*70
$GAGSV,3,2,09,15,22,044,39,19,23,209,37,21,65,063,46,26,13,152,37,7*70
$GAGSV,3,3,09,27,14,083,38,7*4A
$GBGSV,3,1,09,05,09,110,,08,21,038,34,13,27,065,37,14,19,299,33,1*79
$GBGSV,3,2,09,21,17,250,38,26,22,289,38,27,04,029,35,29,43,146,43,1*7F
$GBGSV,3,3,09,30,41,068,42,1*41
$GIGSV,1,1,02,02,19,103,30,06,25,135,36,1*77
$GPGGA,080050.00,4825.1044787,N,00428.4647231,W,4,16,0.4,89.925,M,51.639,M,1.0,4095*68
$GPRMC,080050.00,A,4825.1044787,N,00428.4647231,W,0.0,0.0,140619,1.4,W,D*3E
$GNGSA,A,3,12,25,06,32,24,29,14,02,31,,,,0.9,0.4,0.8,1*3F
$GNGSA,A,3,66,67,85,68,75,77,86,,,,,,0.9,0.4,0.8,2*39
$GPGSV,3,1,11,02,18,097,41,06,16,058,39,12,67,053,47,14,36,303,43,1*60
$GPGSV,3,2,11,19,10,036,37,22,02,333,,24,39,123,44,25,68,266,49,1*66
$GPGSV,3,3,11,29,28,185,45,31,15,299,41,32,47,279,47,1*54
$GSGSV,2,1,07,01,33,195,,04,25,136,42,05,29,147,,06,33,195,,1*69
$GSGSV,2,2,07,07,28,143,,08,11,114,,17,34,167,44,1*56
$GLGSV,3,1,09,66,18,227,37,67,34,284,44,68,15,339,40,75,23,086,41,1*7E
$GLGSV,3,2,09,76,61,053,44,77,39,298,39,85,33,041,43,86,44,119,43,1*7C
$GLGSV,3,3,09,87,06,167,37,1*4C
$GQGSV,1,1,00,1*65
$GAGSV,3,1,09,01,55,282,46,04,37,273,43,09,14,325,38,13,34,101,42,7*72
$GAGSV,3,2,09,15,22,044,39,19,23,209,36,21,65,063,46,26,13,152,37,7*71
$GAGSV,3,3,09,27,14,083,37,7*45
$GBGSV,3,1,09,05,09,110,,08,21,038,34,13,27,065,37,14,19,299,33,1*79
$GBGSV,3,2,09,21,17,250,37,26,22,289,38,27,04,029,36,29,43,146,43,1*73
$GBGSV,3,3,09,30,41,068,42,1*41
$GIGSV,1,1,02,02,19,103,31,06,25,135,36,1*76
$GPGGA,080051.00,4825.1044780,N,00428.4647241,W,4,16,0.4,89.925,M,51.639,M,1.0,4095*69
$GPRMC,080051.00,A,4825.1044780,N,00428.4647241,W,0.0,0.0,140619,1.4,W,D*3F
$GNGSA,A,3,12,25,06,32,24,29,14,02,31,,,,0.9,0.4,0.8,1*3F
$GNGSA,A,3,66,67,85,68,75,77,86,,,,,,0.9,0.4,0.8,2*39
$GPGSV,3,1,11,02,18,097,41,06,16,058,39,12,67,053,47,14,36,303,43,1*60
$GPGSV,3,2,11,19,10,036,38,22,02,333,,24,39,123,45,25,68,266,49,1*68
$GPGSV,3,3,11,29,28,185,45,31,15,299,41,32,47,279,48,1*5B
$GSGSV,2,1,07,01,33,195,,04,25,136,41,05,29,147,,06,33,195,,1*6A
$GSGSV,2,2,07,07,28,143,,08,11,114,,17,34,167,43,1*51
$GLGSV,3,1,09,66,18,227,37,67,34,283,43,68,15,339,39,75,23,086,41,1*70
$GLGSV,3,2,09,76,61,053,44,77,39,298,39,85,33,041,43,86,44,119,43,1*7C
$GLGSV,3,3,09,87,06,167,36,1*4D
$GQGSV,1,1,00,1*65
$GAGSV,3,1,09,01,55,282,45,04,37,273,43,09,14,325,39,13,34,101,42,7*70
$GAGSV,3,2,09,15,22,044,39,19,23,209,36,21,65,063,46,26,13,152,36,7*70
$GAGSV,3,3,09,27,14,083,37,7*45
$GBGSV,3,1,09,05,09,110,,08,21,038,34,13,27,065,37,14,19,299,32,1*78
$GBGSV,3,2,09,21,17,250,37,26,22,289,38,27,04,029,36,29,43,146,43,1*73
$GBGSV,3,3,09,30,41,068,42,1*41
$GIGSV,1,1,02,02,19,103,30,06,25,135,36,1*77
$GPGGA,080052.00,4825.1044770,N,00428.4647237,W,4,16,0.4,89.929,M,51.639,M,1.0,4095*68
$GPRMC,080052.00,A,4825.1044770,N,00428.4647237,W,0.0,0.0,140619,1.4,W,D*32
$GNGSA,A,3,12,25,06,32,24,29,14,02,31,,,,0.9,0.4,0.8,1*3F
$GNGSA,A,3,66,67,85,68,75,77,86,,,,,,0.9,0.4,0.8,2*39
$GPGSV,3,1,11,02,18,097,41,06,16,058,40,12,67,053,47,14,36,303,43,1*6E
$GPGSV,3,2,11,19,10,036,38,22,02,333,,24,39,123,45,25,68,266,49,1*68
